,Unnamed: 0.1,Unnamed: 0,address,state,city,lat,long,install_cnt,date,new_address
49,444,444,춘천시 동면 감정리 268-1,춘천시,동면,37.902117,127.795698,,2020-07-11,
992,1678,1678,영월군 중동면 녹전리  775,영월군,중동면,37.14463293,128.680464,,2020-12-28,
1162,1848,1848,조양동 1544-2,조양동,1544-2,38.192278,128.587601,,2021-07-27,
1163,1849,1849,조양동 1544-2,조양동,1544-2,38.192278,128.587601,,2021-07-27,
1164,1850,1850,조양동 1544-2,조양동,1544-2,38.192278,128.587601,,2021-07-27,
1233,1919,1919,대포동 421-47,대포동,421-47,38.173686,128.6070709,,2021-07-27,
1340,2026,2026,조양동 1544-3,조양동,1544-3,38.192154,128.585301,,2021-07-27,
1341,2027,2027,조양동 1544-3,조양동,1544-3,38.192154,128.585301,,2021-07-27,
1342,2028,2028,조양동 1544-3,조양동,1544-3,38.192154,128.585301,,2021-07-27,
1393,2079,2079,중앙동 중앙로 158,중앙동,중앙로,38.382044,128.592078,,2021-07-27,
2127,3249,3249,화천읍하리59-24,화천읍하리59-24,,38.075414,127.4904,,2021-12-13,
2482,5594,5594,남면 문곡리 590-15천,남면,문곡리,37.266385,128.739516,,2022-05-31,
2540,5652,5652,임계면 송계리 702-2,임계면,송계리,37.495915,128.851255,,2022-05-31,
2846,18125,18125,오산동 388-7,오산동,388-7,37.154722,127.069247,,2020-12-07,
2947,22833,22833,안양5동 449-28,안양5동,449-28,37.392213,126.922504,,2020-12-21,
3562,23448,23448,호계2동 170-8,호계2동,170-8,37.37534,126.94703,,2020-12-21,
4067,23971,23971,왕곡동 260,왕곡동,260,37.20530736,126.5914208,,2020-12-18,
4072,23976,23976,고천동 309-2,고천동,309-2,37.2057894,126.5824445,,2020-12-18,
4073,23977,23977,왕곡동 573,왕곡동,573,37.2037482,126.597568,,2020-12-18,
4074,23978,23978,왕곡동 565-70,왕곡동,565-70,37.20444419,126.593261,,2020-12-18,
4075,23979,23979,왕곡동 457-11,왕곡동,457-11,37.20202488,126.5847762,,2020-12-18,
4093,23997,23997,부곡동 258-2,부곡동,258-2,37.19165,126.572687,,2020-12-18,
4203,24107,24107,오전동 231-1,오전동,231-1,37.213349,126.5896132,,2020-12-18,
4204,24108,24108,오전동 104-37,오전동,104-37,37.213242,126.587932,,2020-12-18,
4244,24148,24148,삼동 192-280,삼동,192-280,37.19155676,126.5718468,,2020-12-18,
4250,24154,24154,삼동 256-12,삼동,256-12,37.19145956,126.5728548,,2020-12-18,
4251,24155,24155,삼동 125-1,삼동,125-1,37.1957108,126.5724451,,2020-12-18,
4252,24156,24156,삼동 104,삼동,104,37.1929604,126.5729506,,2020-12-18,
4253,24157,24157,삼동 138,삼동,138,37.1943464,126.5729632,,2020-12-18,
4254,24158,24158,삼동 71,삼동,71,37.19100272,126.5738358,,2020-12-18,
4255,24159,24159,삼동 69,삼동,69,37.1994296,126.57405,,2020-12-18,
4256,24160,24160,삼동 46-4,삼동,46-4,37.19145416,126.5754241,,2020-12-18,
4257,24161,24161,삼동 248-8,삼동,248-8,37.19134544,126.572759,,2020-12-18,
4258,24162,24162,삼동 249-1,삼동,249-1,37.19123096,126.5732418,,2020-12-18,
4259,24163,24163,삼동 99,삼동,99,37.1994872,126.5728904,,2020-12-18,
4260,24164,24164,삼동 83-3,삼동,83-3,37.1965316,126.5732105,,2020-12-18,
4261,24165,24165,삼동 산 62-6,삼동,산,37.19126876,126.5741663,,2020-12-18,
4262,24166,24166,삼동 20,삼동,20,37.19168744,126.5750577,,2020-12-18,
4263,24167,24167,삼동 11,삼동,11,37.19121548,126.5755022,,2020-12-18,
4264,24168,24168,삼동 2-8,삼동,2-8,37.1969204,126.572788,,2020-12-18,
4265,24169,24169,월암동 145-1,월암동,145-1,37.18117936,126.5737973,,2020-12-18,
4434,24338,24338,오전동 324-10,오전동,324-10,37.2137872,126.5834229,,2020-12-18,
4435,24339,24339,오전동 324-10,오전동,324-10,37.2137872,126.5834229,,2020-12-18,
4609,24513,24513,오전동 150-13,오전동,150-13,37.21249804,126.5739791,,2020-12-18,
4947,26952,26952,백암면 근삼리 산61-2(백암면),백암면,근삼리,37.146583,127.358858,,2021-08-03,
6095,28226,28226,오산리 149-4,오산리,149-4,37.7739037,129.8305134,,2021-07-28,
7961,30166,30166,중대동 211-63답 근처,중대동,211-63답,37.40694831,127.2145502,,2021-08-24,
9070,31311,31311,안양시 만안구 안양5동 449-28,안양시,만안구,37.392213,126.922504,,2021-08-23,
9453,31694,31694,안양시 동안구 호계2동 170-8,안양시,동안구,37.37534,126.94703,,2021-08-23,
11173,38403,38403,정왕동 2732,정왕동,2732,37.32094,126.68937,,2022-04-30,
11176,38406,38406,정왕동 2732,정왕동,2732,37.32163,126.6882,,2022-04-30,
11347,38596,38596,정왕동 2552-1,정왕동,2552-1,37.36346,126.70916,,2022-04-30,
11423,38672,38672,정왕동 1775-1,정왕동,1775-1,37.38423,126.73789,,2022-04-30,
11430,38679,38679,정왕동 1775-1,정왕동,1775-1,37.3846,126.72901,,2022-04-30,
11891,39861,39861,안중리 233-29,안중리,233-29,39.989,126.931,,2022-05-24,
11949,39999,39999,당거리 564,당거리,564,36.989,127.007,,2022-05-24,
12136,40342,40342,삼계리 529,삼계리,529,37.04,136.912,,2022-05-24,
12437,40879,40879,현화리 823-1,현화리,823-1,39.986,126.92,,2022-05-24,
13194,42501,42501,정왕동 2737-1,정왕동,2737-1,37.3211,126.69319,,2022-04-30,
13196,42503,42503,정왕동 2713-5,정왕동,2713-5,37.32222,126.68718,,2022-04-30,
13198,42505,42505,정왕동 2713,정왕동,2713,37.32539,126.69029,,2022-04-30,
13211,42518,42518,SCT-011,SCT-011,,37.32986,126.68318,,2022-04-30,
13214,42521,42521,정왕동 2682-4,정왕동,2682-4,37.33149,126.68059,,2022-04-30,
13276,42583,42583,정왕동 2703-6,정왕동,2703-6,37.32536,126.67833,,2022-04-30,
13279,42586,42586,정왕동 2684,정왕동,2684,37.32962,126.67809,,2022-04-30,
13338,42645,42645,도곡리 1108,도곡리,1108,37.592,126.503,,2022-05-24,
13578,42885,42885,율북리 865-20,율북리,865-20,37.0342,126.5809,,2022-05-24,
13579,42886,42886,율북리 865-3,율북리,865-3,37.0343,126.58106,,2022-05-24,
13580,42887,42887,율북리 867,율북리,867,37.0343,126.58122,,2022-05-24,
13581,42888,42888,율북리 866-2,율북리,866-2,37.0344,126.58133,,2022-05-24,
13582,42889,42889,율북리 879,율북리,879,37.0327,126.58421,,2022-05-24,
13583,42890,42890,율북리 886,율북리,886,37.0326,126.58451,,2022-05-24,
13584,42891,42891,율북리 916-10,율북리,916-10,37.0327,126.58457,,2022-05-24,
13585,42892,42892,율북리 1004,율북리,1004,37.0326,126.58464,,2022-05-24,
13586,42893,42893,율북리 889,율북리,889,37.0326,126.58478,,2022-05-24,
13587,42894,42894,율북리 813,율북리,813,37.0326,126.5825,,2022-05-24,
13588,42895,42895,율북리 822-1,율북리,822-1,37.033,126.58271,,2022-05-24,
13589,42896,42896,율북리 860,율북리,860,37.0325,126.58319,,2022-05-24,
13590,42897,42897,율북리 605,율북리,605,37.0342,126.5809,,2022-05-24,
13754,43071,43071,신천동 586-72,신천동,586-72,37.43999,126.77541,,2022-04-30,
14328,43835,43835,정왕동 2160,정왕동,2160,37.33697,126.75454,,2022-04-30,
14718,44330,44330,권관리 564-23,권관리,564-23,36.914,126.906,,2022-05-24,
15076,44860,44860,원정리 438,원정리,438,36.951,136.842,,2022-05-24,
15175,45002,45002,오전동 150-13,오전동,150-13,37.212498,126.5739791,,2022-06-09,
15291,45118,45118,오전동 104-37,오전동,104-37,37.213242,126.587932,,2020-12-18,
15292,45119,45119,오전동 231-1,오전동,231-1,37.213349,126.5896132,,2020-12-18,
15427,45254,45254,오전동 324-10,오전동,324-10,37.2137872,126.5834229,,2022-06-09,
15428,45255,45255,오전동 324-10,오전동,324-10,37.2137872,126.5834229,,2022-06-09,
15508,45335,45335,삼동 192-280,삼동,192-280,37.1915568,126.5718468,,2022-06-09,
15529,45356,45356,월암동 145-1,월암동,145-1,37.1811794,126.5737973,,2022-06-09,
15552,45379,45379,왕곡동 260,왕곡동,260,37.2053074,126.5914208,,2022-06-09,
15585,45412,45412,부곡동 258-2,부곡동,258-2,37.19165,126.572687,,2022-06-09,
17013,58851,58851,하남시 신장동 231,하남시,신장동,37.5142,127.1924,,2022-11-23,
17461,82118,82118,생초면 신연리 569-1,생초면,신연리,35.483282,127.853299,,2020-09-17,
18038,82890,82890,산청읍 내리 산191-36,산청읍,내리,35.400241,127.886983,,2020-09-17,
18349,86055,86055,서금동 147,서금동,147,34.92382,128.07495,,2022-05-26,
18363,86069,86069,송포동 1526-15,송포동,1526-15,34.96198,128.03842,,2022-05-26,
18364,86070,86070,송포동 1526-15,송포동,1526-15,34.96198,128.03842,,2022-05-26,
18570,86276,86276,정동면 화암리 778,정동면,화암리,35.07785,128.10087,,2022-05-26,
18571,86277,86277,정동면 화암리 778,정동면,화암리,35.07785,128.10087,,2022-05-26,
18592,86298,86298,대포동 438-6,대포동,438-6,34.99002,128.04032,,2022-05-26,
18593,86299,86299,대포동 438-6,대포동,438-6,34.99002,128.04032,,2022-05-26,
18596,86302,86302,향촌동 708-8,향촌동,708-8,34.92694,128.09644,,2022-05-26,
18597,86303,86303,향촌동 708-8,향촌동,708-8,34.92694,128.09644,,2022-05-26,
18598,86304,86304,향촌동 708-8,향촌동,708-8,34.92694,128.09644,,2022-05-26,
18882,86588,86588,이홀동 319-7,이홀동,319-7,34.95086,128.12521,,2022-05-26,
19214,86920,86920,용현면 신촌리 413-4,용현면,신촌리,35.02452,128.04413,,2022-05-26,
19215,86921,86921,용현면 신촌리 413-4,용현면,신촌리,35.02452,128.04413,,2022-05-26,
19283,86989,86989,구평리 산73-9,구평리,산73-9,35.01635,127.96239,,2022-05-26,
19284,86990,86990,구평리 산73-9,구평리,산73-9,35.01635,127.96239,,2022-05-26,
19285,86991,86991,구평리 산73-9,구평리,산73-9,35.01635,127.96239,,2022-05-26,
19286,86992,86992,구평리 산73-9,구평리,산73-9,35.01635,127.96239,,2022-05-26,
19555,87261,87261,동금동 579-2,동금동,579-2,34.92703,128.07736,,2022-05-26,
19556,87262,87262,향촌동 709-11,향촌동,709-11,34.92584,128.09699,,2022-05-26,
19562,87268,87268,향촌동 678-1,향촌동,678-1,34.92368,128.09377,,2022-05-26,
19563,87269,87269,향촌동 678-1,향촌동,678-1,34.92368,128.09377,,2022-05-26,
19564,87270,87270,향촌동 678-1,향촌동,678-1,34.92368,128.09377,,2022-05-26,
19569,87275,87275,향촌동 678-1,향촌동,678-1,34.92368,128.09377,,2022-05-26,
19570,87276,87276,향촌동 678-1,향촌동,678-1,34.92368,128.09377,,2022-05-26,
19653,87359,87359,곤양면 중항리 214-8,곤양면,중항리,35.032,128.0236,,2022-05-26,
19654,87360,87360,곤양면 중항리 214-8,곤양면,중항리,35.032,128.0236,,2022-05-26,
19655,87361,87361,곤양면 중항리 214-8,곤양면,중항리,35.032,128.0236,,2022-05-26,
19665,87371,87371,용현면 신촌리 555-6,용현면,신촌리,35.02344,128.03555,,2022-05-26,
19947,87773,87773,서금동 127-5,서금동,127-5,34.92354,128.06844,,2022-05-26,
19948,87774,87774,서금동 127-5,서금동,127-5,34.92354,128.06844,,2022-05-26,
20085,88229,88229,서포면 다평리 1038-5,서포면,다평리,34.98442,127.95695,,2022-05-26,
20191,88543,88543,늑도동 338-3,늑도동,338-3,34.92445,128.03796,,2022-05-26,
20192,88544,88544,늑도동 338-3,늑도동,338-3,34.92445,128.03796,,2022-05-26,
20464,89455,89455,실안동 476,실안동,476,34.94386,128.04398,,2022-05-26,
20465,89456,89456,실안동 476,실안동,476,34.94386,128.04398,,2022-05-26,
20509,89588,89588,금남면 대도리 201-3,금남면,대도리,34.931648,127.832465,,2022-06-16,
20632,89714,89714,옥종면 정수리 산35-3,옥종면,정수리,35.15267,127.895097,,2022-06-16,
21093,90175,90175,금남면 노량해안길 7,금남면,노량해안길,34.94816,127.859883,,2022-06-16,
21094,90176,90176,금남면 노량리 772-18,금남면,노량리,34.94816,127.859883,,2022-06-16,
21406,114694,114694,중동면 회상리 953-1,중동면,회상리,36.46416,128.260524,,2021-09-24,
21809,117945,117945,청송읍 월외리 123,청송읍,월외리,36.438842,129.148276,,2022-06-10,
21811,117947,117947,청송읍 월외리 123,청송읍,월외리,36.261731,129.9068,,2022-06-10,
21815,117951,117951,청송읍 중앙로 555,청송읍,중앙로,36.261965,129.5557,,2022-06-10,
21827,117963,117963,주왕산면 하의리 102,주왕산면,하의리,36.225643,129.73623,,2022-06-10,
21834,117970,117970,주왕산면 주왕산로 429,주왕산면,주왕산로,36.225104,129.61053,,2022-06-10,
21839,117975,117975,부남면 대전리 64-1,부남면,대전리,36.346412,129.064283,,2022-06-10,
21841,117977,117977,부남면 대전리 95,부남면,대전리,36.345084,129.064081,,2022-06-10,
21848,117984,117984,부남면 양숙리 333,부남면,양숙리,36.164809,129.74321,,2022-06-10,
21855,117991,117991,현동면 눌인리 469-2,현동면,눌인리,36.243637,129.042572,,2022-06-10,
21947,118083,118083,청송읍 거대리 423-2,청송읍,거대리,36.252902,129.63229,,2022-06-10,
21956,118092,118092,청송읍 송생길1,청송읍,송생길1,36.23345,129.53396,,2022-06-10,
21957,118093,118093,청송읍 청송로 4651,청송읍,청송로,36.24223,129.4418,,2022-06-10,
21988,118124,118124,진보면 신촌리 46-7,진보면,신촌리,36.301921,129.71158,,2022-06-10,
22584,120105,120105,예천읍 남본리 129-8,예천읍,남본리,36.645212,128.454953,,2022-12-31,
22919,136712,136712,비산동 151-28,비산동,151-28,35.871877,128.57696,,2022-06-10,
24258,140505,140505,범어2동 52-15,범어2동,52-15,35.863797,128.629984,,2022-07-11,
24259,140506,140506,범어2동 52-15_서쪽,범어2동,52-15_서쪽,35.863797,128.629984,,2022-07-11,
24393,140640,140640,범어2동 136-2,범어2동,136-2,35.865725,128.633251,,2022-07-11,
24570,140817,140817,범어2동 53-3,범어2동,53-3,35.865558,128.629785,,2022-07-11,
24573,140820,140820,범어2동 141-1,범어2동,141-1,35.864232,128.634272,,2022-07-11,
24610,140857,140857,범어2동 142-33(범어유치원),범어2동,142-33(범어유치원),35.863257,128.6341,,2022-07-11,
24668,140915,140915,범어2동 53-3(동쪽),범어2동,53-3(동쪽),35.865558,128.629785,,2022-07-11,
24669,140916,140916,범어2동 135-12 북쪽,범어2동,135-12,35.86599,128.631866,,2022-07-11,
24670,140917,140917,범어2동 135-12 서쪽,범어2동,135-12,35.86599,128.631866,,2022-07-11,
24671,140918,140918,범어2동 53-3(북쪽),범어2동,53-3(북쪽),35.865558,128.629785,,2022-07-11,
24989,141236,141236,만촌1동1356-22,만촌1동1356-22,,35.870012,128.632833,,2022-07-11,
25005,141252,141252,범어2동 135-12(범어유치원권역),범어2동,135-12(범어유치원권역),35.86599,128.631866,,2022-07-11,
25166,141413,141413,범어3동555-1,범어3동555-1,,35.861386,128.622653,,2022-07-11,
25629,141876,141876,범어2동 52-29,범어2동,52-29,35.864564,128.630784,,2022-07-11,
25630,141877,141877,범어2동 52-29 서쪽,범어2동,52-29,35.864564,128.630784,,2022-07-11,
25817,142064,142064,고산3동(사월동) 325 (푸르지오아파트 후문),고산3동(사월동),325,35.837948,128.718216,,2022-07-11,
25944,142191,142191,범어2동 136-44,범어2동,136-44,35.865138,128.633662,,2022-07-11,
26135,144325,144325,동구 낭월동 535,동구,낭월동,36.2768293,127.4661863,,2020-06-30,
26209,144399,144399,동구 용운동 180-4,동구,용운동,36.3304272,127.4608674,,2020-06-30,
26211,144401,144401,동구 용운동 276-5,동구,용운동,36.3299917,127.4624628,,2020-06-30,
26284,144474,144474,동구 천동 63-1,동구,천동,36.309891,127.449063,,2020-06-30,
26668,146131,146131,둔산3동 2275,둔산3동,2275,36.3495,127.401897,,2021-10-26,
28039,151361,151361,영주동 205-4,영주동,205-4,35.09633507,129.0334,,2022-06-08,
28799,155374,155374,괴정동 100-47,괴정동,100-47,35.107791,129.0078905,,2022-08-18,
28800,155375,155375,괴정동 100-47,괴정동,100-47,35.10779,129.0078905,,2022-08-18,
28994,156084,156084,신평동 660,신평동,660,35.0805183,128.9529544,,2022-08-18,
28995,156085,156085,신평동 660,신평동,660,35.0811724,128.9554435,,2022-08-18,
33388,170707,170707,홍은동 217-27,홍은동,217-27,37.590223,126.939931,,2021-02-28,
35094,174087,174087,진관동 66-29 구파발역1번출구 인근,진관동,66-29,37.63752,126.91888,,2021-08-01,
35095,174088,174088,진관동 66-29 구파발역1번출구 인근,진관동,66-29,37.63752,126.91888,,2021-08-01,
35164,174157,174157,진관동 51 금호 어울림 1009동 앞,진관동,51,37.642732,126.917174,,2021-08-01,
35195,174188,174188,진관동 27 1018동 건너편,진관동,27,37.644929,126.917248,,2021-08-01,
40516,211725,211725,반구동 587-7,반구동,587-7,35.555251,129.34429,,2021-07-01,
42423,213632,213632,옥동 180-1,옥동,180-1,35.5236,123.3409,,2021-06-30,
42705,213914,213914,신화로41번길 32-12,신화로41번길,32-12,35.5309,129.3387,,2021-06-30,
42706,213915,213915,신화로41번길 32-12,신화로41번길,32-12,35.5309,129.3387,,2021-06-30,
43440,214717,214717,신화로41번길 32-12,신화로41번길,32-12,35.5309,129.3387,,2021-06-30,
43441,214718,214718,신화로41번길 32-12,신화로41번길,32-12,35.5309,129.3387,,2021-06-30,
43922,215203,215203,옥동 180-1,옥동,180-1,35.5236,123.3409,,2021-06-30,
44652,215970,215970,방어동1023-5,방어동1023-5,,35.478568,129.4143249,,2022-11-01,
44653,215971,215971,방어동1023-5,방어동1023-5,,35.478568,129.4143249,,2022-11-01,
44654,215972,215972,방어동1023-5,방어동1023-5,,35.478568,129.4143249,,2022-11-01,
44655,215973,215973,방어동1023-5,방어동1023-5,,35.478568,129.4143249,,2022-11-01,
44656,215974,215974,방어동1023-5,방어동1023-5,,35.478568,129.4143249,,2022-11-01,
44721,216039,216039,주전동738-4,주전동738-4,,35.550611,129.454812,,2022-11-01,
44783,216101,216101,주전동 31-3,주전동,31-3,35.565632,129.455262,,2022-11-01,
44784,216102,216102,주전동 31-3,주전동,31-3,35.565632,129.455262,,2022-11-01,
44785,216103,216103,주전동 31-3,주전동,31-3,35.565632,129.455262,,2022-11-01,
44786,216104,216104,주전동 31-3,주전동,31-3,35.565632,129.455262,,2022-11-01,
44787,216105,216105,주전동 31-3,주전동,31-3,35.565632,129.455262,,2022-11-01,
45055,216373,216373,방어동 207-7,방어동,207-7,35.4808892,129.4223966,,2022-11-01,
45056,216374,216374,방어동 207-7,방어동,207-7,35.4808892,129.4223966,,2022-11-01,
45057,216375,216375,방어동 207-7,방어동,207-7,35.4808892,129.4223966,,2022-11-01,
45058,216376,216376,방어동 207-7,방어동,207-7,35.4808892,129.4223966,,2022-11-01,
45307,216625,216625,주전동738-4,주전동738-4,,35.5509522,129.4548893,,2022-11-01,
45503,216821,216821,방어동 949,방어동,949,35.478064,129.430561,,2022-11-01,
45504,216822,216822,방어동 949,방어동,949,35.478064,129.430561,,2022-11-01,
45505,216823,216823,방어동 949,방어동,949,35.478064,129.430561,,2022-11-01,
45506,216824,216824,방어동 949,방어동,949,35.478219,129.4291011,,2022-11-01,
45507,216825,216825,방어동 949,방어동,949,35.478219,129.4291011,,2022-11-01,
45508,216826,216826,방어동 949,방어동,949,35.478219,129.4291011,,2022-11-01,
45509,216827,216827,방어동 949,방어동,949,35.478219,129.4291011,,2022-11-01,
45510,216828,216828,방어동 949,방어동,949,35.478219,129.4291011,,2022-11-01,
45511,216829,216829,방어동 949,방어동,949,35.478219,129.4291011,,2022-11-01,
45600,217648,217648,일산동 902-2 부근,일산동,902-2,35.4920566,129.4338651,,2022-11-01,
45601,217649,217649,일산동 902-2 부근,일산동,902-2,35.4920566,129.4338651,,2022-11-01,
45602,217650,217650,일산동 902-2 부근,일산동,902-2,35.4920566,129.4338651,,2022-11-01,
45603,217651,217651,일산동 902-2 부근,일산동,902-2,35.4920566,129.4338651,,2022-11-01,
45604,217652,217652,일산동902-2부근,일산동902-2부근,,35.4920566,129.4338651,,2022-11-01,
45605,217653,217653,일산동902-2부근,일산동902-2부근,,35.4920566,129.4338651,,2022-11-01,
45606,217654,217654,일산동902-2부근,일산동902-2부근,,35.4920566,129.4338651,,2022-11-01,
45689,217737,217737,방어동958,방어동958,,35.478049,129.4146407,,2022-11-01,
45690,217738,217738,방어동958,방어동958,,35.478049,129.4146407,,2022-11-01,
45691,217739,217739,방어동958,방어동958,,35.478049,129.4146407,,2022-11-01,
45692,217740,217740,방어동958,방어동958,,35.478049,129.4146407,,2022-11-01,
45693,217741,217741,방어동958,방어동958,,35.478049,129.4146407,,2022-11-01,
45842,217890,217890,일산동 905,일산동,905,35.493598,129.437584,,2022-11-01,
45843,217891,217891,일산동 905,일산동,905,35.493598,129.437584,,2022-11-01,
45844,217892,217892,일산동 905,일산동,905,35.493598,129.437584,,2022-11-01,
45845,217893,217893,일산동 905,일산동,905,35.493598,129.437584,,2022-11-01,
45846,217894,217894,일산동 905,일산동,905,35.493598,129.437584,,2022-11-01,
45847,217895,217895,일산동 905,일산동,905,35.493598,129.437584,,2022-11-01,
45848,217896,217896,일산동 905,일산동,905,35.494753,129.439642,,2022-11-01,
45849,217897,217897,일산동 905,일산동,905,35.494753,129.439642,,2022-11-01,
45850,217898,217898,일산동 905,일산동,905,35.494753,129.439642,,2022-11-01,
45851,217899,217899,일산동 905,일산동,905,35.494753,129.439642,,2022-11-01,
46031,221493,221493,을왕동 773-24번지,을왕동,773-24번지,37.448429,126.369647,,2020-07-02,
46035,221497,221497,월미문화로 61,월미문화로,61,37.472505,126.597054,,2020-07-02,
46097,221559,221559,북성동1가 3-9 부근,북성동1가,3-9,37.483002,126.614689,,2020-07-02,
46138,221600,221600,무의동 998-15,무의동,998-15,37.372903,126.440716,,2020-07-02,
46367,221948,221948,운서동 2827(삼목선착장),운서동,2827(삼목선착장),37.4997288,126.452429,,2020-07-02,
48417,225861,225861,경인로234번길 12-6,경인로234번길,12-6,37.4625,126.66796,,2022-12-02,
49011,226607,226607,주승로 258-1,주승로,258-1,37.44766,126.69229,,2022-12-02,
49215,228265,228265,미암면 선황리 252-20 미암초등학교 후문 1ch,미암면,선황리,34.7,126.575,,2020-12-11,
49584,228634,228634,함평읍 석성리 560-14,함평읍,석성리,35.086,126.4311,,2020-11-25,
49585,228635,228635,함평읍 석성리 560-14,함평읍,석성리,35.086,126.4311,,2020-11-25,
49586,228636,228636,손불면 학산리 1013-54,손불면,학산리,35.1591,126.3711,,2020-11-25,
49843,230127,230127,대덕읍 신리 1131-3,대덕읍,신리,34.446659,126.849337,,2021-05-03,
50289,230573,230573,장흥읍 건산리 479-10,장흥읍,건산리,34.6800414,127.90829,,2021-05-03,
50290,230574,230574,장흥읍 건산리 479-10,장흥읍,건산리,34.6800414,128.90829,,2021-05-03,
50291,230575,230575,장흥읍 건산리 479-10,장흥읍,건산리,34.6800414,129.90829,,2021-05-03,
50292,230576,230576,장흥읍 건산리 479-10,장흥읍,건산리,34.6800414,130.90829,,2021-05-03,
51381,232673,232673,진도군 의신면 돈지리 270-2,진도군,의신면,35.44031,126.2842,,2022-06-15,
51524,232816,232816,진도군 임회면 죽림리 436-14,진도군,임회면,34.37963,126.26578,,2022-06-15,
51525,232817,232817,진도군 임회면 죽림리 436-14,진도군,임회면,34.37963,126.26578,,2022-06-15,
51544,232836,232836,진도군 임회면 연동리 241,진도군,임회면,34.586207,126.158139,,2022-06-15,
51545,232837,232837,진도군 임회면 연동리 241,진도군,임회면,34.586207,126.158139,,2022-06-15,
51989,233281,233281,진도군 조도면 가사도리 산 243-3,진도군,조도면,34.470771,126.041195,,2022-06-15,
51990,233282,233282,진도군 조도면 가사도리 산 243-3,진도군,조도면,34.470771,126.041195,,2022-06-15,
51991,233283,233283,진도군 조도면 가사도리 산 243-3,진도군,조도면,34.470771,126.041195,,2022-06-15,
52708,235145,235145,승주읍 서평리 546-1번지,승주읍,서평리,35.0166,127.3791,,2022-05-31,
52709,235146,235146,승주읍 서평리 546-1번지,승주읍,서평리,35.0166,127.3791,,2022-05-31,
52825,235262,235262,신대지구-모다아울렛 연결박스,신대지구-모다아울렛,연결박스,34.9258,127.5458,,2022-05-31,
53018,235455,235455,동외동 56-49,동외동,56-49,32.5221,123.7417,,2022-05-31,
53140,235577,235577,덕암동 272-10,덕암동,272-10,34.9472,127.5036,,2022-05-31,
53464,235901,235901,낙안면 신기리217-2도,낙안면,신기리217-2도,34.8682,127.3477,,2022-05-31,
53541,235978,235978,용당동 704-10,용당동,704-10,34.975,127.4859,,2022-05-31,
53555,235992,235992,용당동 현대아파트후문,용당동,현대아파트후문,34.9738,127.4914,,2022-05-31,
53638,236075,236075,별량면 학산리 392-18,별량면,학산리,34.8666,127.486,,2022-05-31,
53639,236076,236076,별량면 학산리 392-18,별량면,학산리,34.8666,127.486,,2022-05-31,
53805,236242,236242,낙안면 동내리 472-8,낙안면,동내리,34.9065,127.3442,,2022-05-31,
53806,236243,236243,낙안면 동내리 472-8,낙안면,동내리,34.9065,127.3442,,2022-05-31,
53839,236276,236276,비촌리 437-4,비촌리,437-4,35.186,127.4175,,2022-05-31,
54021,236458,236458,상내리 614-5,상내리,614-5,34.8453,127.525,,2022-05-31,
54022,236459,236459,상내리 614-5,상내리,614-5,34.8453,127.5249,,2022-05-31,
54411,236848,236848,서면 청소년수련원길190(운평리),서면,청소년수련원길190(운평리),53.0444,127.4793,,2022-05-31,
54942,237379,237379,서면 동산리 11번지,서면,동산리,34.9922,127.4946,,2022-05-31,
55087,237524,237524,현대아파트후문,현대아파트후문,,34.9738,127.4914,,2022-05-31,
55173,237610,237610,용당동 553-2,용당동,553-2,34.9665,127.4907,,2022-05-31,
55244,237681,237681,주암면 오산리 681-5,주암면,오산리,35.0681,127.2823,,2022-05-31,
55267,237704,237704,별량면 구룡리 4-2,별량면,구룡리,34.5006,127.2601,,2022-05-31,
55268,237705,237705,별량면 구룡리 4-2,별량면,구룡리,34.5006,127.2601,,2022-05-31,
55274,237711,237711,별량면 마산리 37-6,별량면,마산리,34.5027,127.2727,,2022-05-31,
55275,237712,237712,별량면 마산리 37-6,별량면,마산리,34.5027,127.2727,,2022-05-31,
55276,237713,237713,별량면 마산리 498일대,별량면,마산리,34.5012,127.2648,,2022-05-31,
55277,237714,237714,별량면 마산리 498일대,별량면,마산리,34.5012,127.2648,,2022-05-31,
55278,237715,237715,별량면 마산리 498일대,별량면,마산리,34.5008,127.2656,,2022-05-31,
55279,237716,237716,별량면 마산리 498일대,별량면,마산리,34.5008,127.2656,,2022-05-31,
55338,237775,237775,교량동 1135-97,교량동,1135-97,34.304,127.3058,,2022-05-31,
55489,237926,237926,매곡동 551-1,매곡동,551-1,34.6939,127.4884,,2022-05-31,
55900,240580,240580,변산면 격포리794,변산면,격포리794,35.62049,126.462979,,2020-12-14,
55904,240584,240584,변산면 대항리 523-189,변산면,대항리,35.68026,126.530743,,2020-12-14,
55905,240585,240585,변산면 도청리 203-123,변산면,도청리,35.581439,126.507511,,2020-12-14,
55907,240587,240587,변산면 운산리 441-13,변산면,운산리,35.661547,126.507275,,2020-12-14,
55909,240589,240589,위도면 진리 548,위도면,진리,35.605204,126.284312,,2020-12-14,
56846,249535,249535,제주특별자치도 서귀포시 남원읍 의귀리 1483-15,제주특별자치도,서귀포시,33.310106,126.714732,,2022-12-15,
56847,249536,249536,제주특별자치도 서귀포시 남원읍 의귀리 1424,제주특별자치도,서귀포시,33.309826,126.713921,,2022-12-15,
56997,249686,249686,비봉면 장재리 261-15,비봉면,장재리,36.526693,126.787878,,2020-11-20,
57056,249745,249745,목면 본의리 753,목면,본의리,36.428356,126.006782,,2020-11-20,
57062,249751,249751,목면 신흥리 680-8,목면,신흥리,36.401013,126.008747,,2020-11-20,
57186,249875,249875,청양읍 읍내리 174-6,청양읍,읍내리,36.450617,126.803052,,2020-11-20,
57275,249964,249964,충청남도 부여군 외산면 장항리 331-1,충청남도,부여군,36.313849,126.371407,,2021-06-18,
57419,250108,250108,충청남도 부여군 부여읍 동남리 504-41,충청남도,부여군,36.277448,126.390802,,2021-06-18,
57447,250136,250136,충청남도 부여군 부여읍 동남리 247-1,충청남도,부여군,36.280425,126.913356,,2021-06-18,
57613,250302,250302,충청남도 부여군 부여읍 동남리 231,충청남도,부여군,36.2813776,126.913339,,2021-06-18,
57689,250378,250378,충청남도 부여군 구룡면 태양리 80-2,충청남도,부여군,36.2528779,126.814706,,2021-06-18,
57716,250405,250405,충청남도 부여군 부여읍 동남리 760,충청남도,부여군,36.2782059,126.917266,,2021-06-18,
57740,250429,250429,충청남도 부여군 규암면 합송리 106-8,충청남도,부여군,36.251906,126.875191,,2021-06-18,
58205,250894,250894,충남 당진시 송악읍 한진리 95-17,충남,당진시,36.970395,126.782191,,2021-08-25,
58206,250895,250895,충남 당진시 송악읍 한진리 95-17,충남,당진시,36.970395,126.782191,,2021-08-25,
58216,250905,250905,충남 당진시 신평면 매산리 69-14,충남,당진시,36.905018,126.814614,,2021-08-25,
58217,250906,250906,충남 당진시 신평면 매산리 69-14,충남,당진시,36.905018,126.814614,,2021-08-25,
58741,251430,251430,충남 당진시 우강면 창리 366-32,충남,당진시,36.807368,126.778583,,2021-08-25,
58742,251431,251431,충남 당진시 우강면 창리 366-32,충남,당진시,36.807368,126.778583,,2021-08-25,
59002,251691,251691,충남 당진시 우강면 창리 366-32,충남,당진시,36.807368,126.778583,,2021-08-25,
59060,251749,251749,충남 당진시 우강면 창리 366-32,충남,당진시,36.807368,126.778583,,2021-08-25,
59123,251812,251812,충남 당진시 송산면 동곡리 260-1,충남,당진시,36.967022,126.696833,,2021-08-25,
59124,251813,251813,충남 당진시 송산면 동곡리 260-1,충남,당진시,36.967022,126.696833,,2021-08-25,
60050,252739,252739,충청남도 태안군 근흥면 정죽리 1268-28,충청남도,태안군,36.67839395,126.1548258,,2021-06-30,
60051,252740,252740,충청남도 태안군 근흥면 정죽리 1268-28,충청남도,태안군,36.67839395,126.1548258,,2021-06-30,
60052,252741,252741,충청남도 태안군 근흥면 정죽리 1268-28,충청남도,태안군,36.67839395,126.1548258,,2021-06-30,
60053,252742,252742,충청남도 태안군 근흥면 정죽리 1268-28,충청남도,태안군,36.67839395,126.1548258,,2021-06-30,
60054,252743,252743,충청남도 태안군 근흥면 정죽리 1268-28,충청남도,태안군,36.67839395,126.1548258,,2021-06-30,
60055,252744,252744,충청남도 태안군 근흥면 정죽리 1268-28,충청남도,태안군,36.67839395,126.1548258,,2021-06-30,
60056,252745,252745,충청남도 태안군 근흥면 정죽리 1268-28,충청남도,태안군,36.67839395,126.1548258,,2021-06-30,
60057,252746,252746,충청남도 태안군 근흥면 정죽리 1268-28,충청남도,태안군,36.67839395,126.1548258,,2021-06-30,
60058,252747,252747,충청남도 태안군 근흥면 정죽리 1268-28,충청남도,태안군,36.67839395,126.1548258,,2021-06-30,
60059,252748,252748,충청남도 태안군 근흥면 정죽리 1268-28,충청남도,태안군,36.67839395,126.1548258,,2021-06-30,
60060,252749,252749,충청남도 태안군 근흥면 정죽리 1268-28,충청남도,태안군,36.67839395,126.1548258,,2021-06-30,
60061,252750,252750,충청남도 태안군 근흥면 정죽리 1268-28,충청남도,태안군,36.67839395,126.1548258,,2021-06-30,
60126,252815,252815,충청남도 태안군 근흥면 정죽리 1268-28,충청남도,태안군,36.67839395,126.1548258,,2021-06-30,
60127,252816,252816,충청남도 태안군 근흥면 정죽리 1268-28,충청남도,태안군,36.67839395,126.1548258,,2021-06-30,
60128,252817,252817,충청남도 태안군 근흥면 정죽리 1268-28,충청남도,태안군,36.67839395,126.1548258,,2021-06-30,
60129,252818,252818,충청남도 태안군 근흥면 정죽리 1268-28,충청남도,태안군,36.67839395,126.1548258,,2021-06-30,
60130,252819,252819,충청남도 태안군 근흥면 정죽리 1268-28,충청남도,태안군,36.67839395,126.1548258,,2021-06-30,
60131,252820,252820,충청남도 태안군 근흥면 정죽리 1268-28,충청남도,태안군,36.67839395,126.1548258,,2021-06-30,
60132,252821,252821,충청남도 태안군 근흥면 정죽리 1268-28,충청남도,태안군,36.67839395,126.1548258,,2021-06-30,
60133,252822,252822,충청남도 태안군 근흥면 정죽리 1268-28,충청남도,태안군,36.67839395,126.1548258,,2021-06-30,
60134,252823,252823,충청남도 태안군 근흥면 정죽리 1268-28,충청남도,태안군,36.67839395,126.1548258,,2021-06-30,
60135,252824,252824,충청남도 태안군 근흥면 정죽리 1268-28,충청남도,태안군,36.67839395,126.1548258,,2021-06-30,
60222,252911,252911,충청남도 태안군 근흥면 정죽리 1268-28,충청남도,태안군,36.67839395,126.1548258,,2021-06-30,
60223,252912,252912,충청남도 태안군 근흥면 정죽리 1268-28,충청남도,태안군,36.67839395,126.1548258,,2021-06-30,
60224,252913,252913,충청남도 태안군 근흥면 정죽리 1268-28,충청남도,태안군,36.67839395,126.1548258,,2021-06-30,
60225,252914,252914,충청남도 태안군 근흥면 정죽리 1268-28,충청남도,태안군,36.67839395,126.1548258,,2021-06-30,
60580,253269,253269,충청남도 태안군 근흥면 정죽리 1268-28,충청남도,태안군,36.67839395,126.1548258,,2021-06-30,
60581,253270,253270,충청남도 태안군 근흥면 정죽리 1268-28,충청남도,태안군,36.67839395,126.1548258,,2021-06-30,
60609,253298,253298,충청남도 태안군 안면읍 황도리 26-5,충청남도,태안군,36.59906643,126.3835809,,2021-06-30,
60652,253341,253341,충청남도 태안군 안면읍 황도리 26-5,충청남도,태안군,36.59906643,126.3835809,,2021-06-30,
60653,253342,253342,충청남도 태안군 안면읍 황도리 26-5,충청남도,태안군,36.59906643,126.3835809,,2021-06-30,
60654,253343,253343,충청남도 태안군 안면읍 황도리 26-5,충청남도,태안군,36.59906643,126.3835809,,2021-06-30,
60728,253417,253417,충청남도 태안군 안면읍 황도리 26-5,충청남도,태안군,36.59906643,126.3835809,,2021-06-30,
60729,253418,253418,충청남도 태안군 안면읍 황도리 26-5,충청남도,태안군,36.59906643,126.3835809,,2021-06-30,
60730,253419,253419,충청남도 태안군 안면읍 황도리 26-5,충청남도,태안군,36.59906643,126.3835809,,2021-06-30,
60731,253420,253420,충청남도 태안군 안면읍 황도리 26-5,충청남도,태안군,36.59906643,126.3835809,,2021-06-30,
61582,254271,254271,충청남도 아산시 신창면 남성리 49-10,충청남도,아산시,36.796049,126.95782,,2022-03-24,
61583,254272,254272,충청남도 아산시 신창면 남성리 49-10,충청남도,아산시,36.796049,126.95782,,2022-03-24,
62411,255100,255100,충청남도 아산시 송악면 수곡리 81-2,충청남도,아산시,36.722721,126.96133,,2022-03-24,
62508,255197,255197,충청남도 아산시 둔포면 둔포리 280-4,충청남도,아산시,36.927119,126.890683,,2022-03-24,
62725,255414,255414,충청남도 서산시 오지리 313-5,충청남도,서산시,36.96192,126.34956,,2021-11-19,
62749,255438,255438,충청남도 서산시 호리 산1,충청남도,서산시,36.86054,126.34791,,2021-11-19,
62797,255486,255486,충청남도 서산시 오지리 338-30 오지리 벌말항 338-49번지 선,충청남도,서산시,36.96125,126.3337,,2021-11-19,
62824,255513,255513,충청남도 서산시  간월도리 10-2,충청남도,서산시,36.60803,126.42265,,2021-11-19,
62955,255644,255644,충청남도 서산시 부석면 창리 293-73,충청남도,서산시,36.62436,126.36962,,2021-11-19,
63018,255707,255707,충청남도 서산시 운산면 안호리 283-8,충청남도,서산시,36.8284,126.57976,,2021-11-19,
63037,255726,255726,충청남도 서산시 팔봉면 고파도리 213-1,충청남도,서산시,36.91273,126.33878,,2021-11-19,
63040,255729,255729,충청남도 서산시 지곡면 중왕리 968-7,충청남도,서산시,36.91812,126.35291,,2021-11-19,
63041,255730,255730,충청남도 서산시 지곡면 중왕리 산 147-2,충청남도,서산시,36.93298,126.33929,,2021-11-19,
63042,255731,255731,충청남도 서산시 지곡면 중왕리 647-28,충청남도,서산시,36.92844,126.3406,,2021-11-19,
63253,255942,255942,충청남도 아산시 선장면 신성리 185-6,충청남도,아산시,36.772211,126.89373,,2022-03-24,
63454,256143,256143,충청남도 서산시 대산읍 대산리 135-20,충청남도,서산시,36.93728,126.43534,,2021-11-19,
64097,256786,256786,충청남도 아산시 신창면 읍내리 291-3,충청남도,아산시,36.777442,126.933538,,2022-03-24,
64098,256787,256787,충청남도 아산시 신창면 읍내리 291-3,충청남도,아산시,36.777442,126.933538,,2022-03-24,
64099,256788,256788,충청남도 아산시 신창면 읍내리 291-3,충청남도,아산시,36.777442,126.933538,,2022-03-24,
65093,257782,257782,충청남도 아산시 영인면 월선리 623,충청남도,아산시,36.873613,126.939466,,2022-03-24,
65094,257783,257783,충청남도 아산시 영인면 월선리 623,충청남도,아산시,36.873613,126.939466,,2022-03-24,
66003,258692,258692,충청남도 서천군 마서면 죽산리 산4-22,충청남도,서천군,36.054748,126.632631,,2022-06-10,
66010,258699,258699,충청남도 서천군 장항읍 장암리 435,충청남도,서천군,36.006759,126.662804,,2022-06-10,
66015,258704,258704,충청남도 서천군 비인면 다사리 419-9,충청남도,서천군,36.096321,126.612532,,2022-06-10,
66020,258709,258709,충청남도 서천군 마서면 죽산리 산4-22,충청남도,서천군,36.054938,126.632824,,2022-06-10,
66021,258710,258710,충청남도 서천군 장항읍 장암리 산26-1,충청남도,서천군,36.006939,126.662884,,2022-06-10,
66022,258711,258711,충청남도 서천군 장항읍 장암리 산26-1,충청남도,서천군,36.006675,126.662584,,2022-06-10,
66405,259094,259094,충청남도 서천군 장항읍 원수리 303-16,충청남도,서천군,36.004179,126.707661,,2022-06-10,
66406,259095,259095,충청남도 서천군 장항읍 원수리 303-16,충청남도,서천군,36.00386,126.707631,,2022-06-10,
66407,259096,259096,충청남도 서천군 장항읍 원수리 303-16,충청남도,서천군,36.002878,126.707479,,2022-06-10,
66408,259097,259097,충청남도 서천군 장항읍 원수리 303-16,충청남도,서천군,36.001478,126.707418,,2022-06-10,
66409,259098,259098,충청남도 서천군 장항읍 원수리 303-16,충청남도,서천군,35.999539,126.707236,,2022-06-10,
66706,259395,259395,충청남도 서천군 장항읍 신창리 420-89일원,충청남도,서천군,36.006971,126.693442,,2022-06-10,
66709,259398,259398,충청남도 서천군 한산면 원산리 333,충청남도,서천군,36.118831,126.836235,,2022-06-10,
66719,259408,259408,충청남도 서천군 서면 마량리 132-6번지일원,충청남도,서천군,36.128724,126.505016,,2022-06-10,
67157,259846,259846,충청남도 금산군 복수면 곡남리 135-5,충청남도,금산군,36.1661913,127.3957872,,2022-06-13,
67268,259957,259957,충청남도 금산군 복수면 곡남리 579,충청남도,금산군,36.1629085,127.388438,,2022-06-13,
69013,261702,261702,충청남도 천안시 동남구 사직동 343-122,충청남도,천안시,36.799254,127.149666,,2022-03-01,
69014,261703,261703,충청남도 천안시 동남구 사직동 343-122,충청남도,천안시,36.799254,127.149666,,2022-03-01,
70162,262851,262851,충청남도 천안시 서북구 차암동 455,충청남도,천안시,36.842259,127.101003,,2022-03-01,
70163,262852,262852,충청남도 천안시 서북구 차암동 455,충청남도,천안시,36.842259,127.101003,,2022-03-01,
70222,262911,262911,충청남도 금산군 부리면 수통리 806,충청남도,금산군,36.0582568,127.588697,,2022-06-13,
71653,264342,264342,충청남도 천안시 동남구 수신면 속창리 236-16,충청남도,천안시,36.7291,127.27945,,2022-03-01,
71654,264343,264343,충청남도 천안시 동남구 수신면 속창리 236-16,충청남도,천안시,36.7291,127.27945,,2022-03-01,
73278,265967,265967,충청남도 천안시 서북구 입장면 유리 197-1,충청남도,천안시,36.919947,127.219613,,2022-03-01,
73405,266094,266094,충청남도 공주시 우성면 옥성리 467,충청남도,공주시,36.4543387,127.0658189,,2022-11-22,
73681,266370,266370,충남 당진시 우강면 창리 366-32,충남,당진시,36.807368,126.778583,,2022-07-26,
73844,266533,266533,충남 당진시 송악읍 한진리 95-17,충남,당진시,36.970395,126.782191,,2022-07-26,
73845,266534,266534,충남 당진시 송악읍 한진리 95-17,충남,당진시,36.970395,126.782191,,2022-07-26,
73877,266566,266566,충남 당진시 우강면 창리 366-32,충남,당진시,36.807368,126.778583,,2022-07-26,
73878,266567,266567,충남 당진시 우강면 창리 366-32,충남,당진시,36.807368,126.778583,,2022-07-26,
73921,266610,266610,충남 당진시 신평면 매산리 69-14,충남,당진시,36.925347,126.811843,,2022-07-26,
73958,266647,266647,충남 당진시 신평면 매산리 69-14,충남,당진시,36.925347,126.811843,,2022-07-26,
74022,266711,266711,충남 당진시 우강면 창리 366-32,충남,당진시,36.807368,126.778583,,2022-07-26,
74359,267048,267048,충남 당진시 송산면 동곡리 260-1,충남,당진시,36.967022,126.696833,,2022-07-26,
74360,267049,267049,충남 당진시 송산면 동곡리 260-1,충남,당진시,36.967022,126.696833,,2022-07-26,
74869,267558,267558,충청남도 공주시 정치리 381-11,충청남도,공주시,36.3181834,126.9913073,,2022-11-22,
77122,269814,269814,충청남도 태안군 근흥면 정죽리 1268-28,충청남도,태안군,36.67839395,126.1548258,,2022-11-20,
77123,269815,269815,충청남도 태안군 근흥면 정죽리 1268-28,충청남도,태안군,36.67839395,126.1548258,,2022-11-20,
77124,269816,269816,충청남도 태안군 근흥면 정죽리 1268-28,충청남도,태안군,36.67839395,126.1548258,,2022-11-20,
77125,269817,269817,충청남도 태안군 근흥면 정죽리 1268-28,충청남도,태안군,36.67839395,126.1548258,,2022-11-20,
77126,269818,269818,충청남도 태안군 근흥면 정죽리 1268-28,충청남도,태안군,36.67839395,126.1548258,,2022-11-20,
77127,269819,269819,충청남도 태안군 근흥면 정죽리 1268-28,충청남도,태안군,36.67839395,126.1548258,,2022-11-20,
77128,269820,269820,충청남도 태안군 근흥면 정죽리 1268-28,충청남도,태안군,36.67839395,126.1548258,,2022-11-20,
77129,269821,269821,충청남도 태안군 근흥면 정죽리 1268-28,충청남도,태안군,36.67839395,126.1548258,,2022-11-20,
77130,269822,269822,충청남도 태안군 근흥면 정죽리 1268-28,충청남도,태안군,36.67839395,126.1548258,,2022-11-20,
77131,269823,269823,충청남도 태안군 근흥면 정죽리 1268-28,충청남도,태안군,36.67839395,126.1548258,,2022-11-20,
77132,269824,269824,충청남도 태안군 근흥면 정죽리 1268-28,충청남도,태안군,36.67839395,126.1548258,,2022-11-20,
77133,269825,269825,충청남도 태안군 근흥면 정죽리 1268-28,충청남도,태안군,36.67839395,126.1548258,,2022-11-20,
77134,269826,269826,충청남도 태안군 근흥면 정죽리 1268-28,충청남도,태안군,36.67839395,126.1548258,,2022-11-20,
77135,269827,269827,충청남도 태안군 근흥면 정죽리 1268-28,충청남도,태안군,36.67839395,126.1548258,,2022-11-20,
77680,270372,270372,충청남도 태안군 안면읍 황도리 26-5,충청남도,태안군,36.59906643,126.3835809,,2022-11-20,
77681,270373,270373,충청남도 태안군 안면읍 황도리 26-5,충청남도,태안군,36.59906643,126.3835809,,2022-11-20,
77682,270374,270374,충청남도 태안군 안면읍 황도리 26-5,충청남도,태안군,36.59906643,126.3835809,,2022-11-20,
77683,270375,270375,충청남도 태안군 안면읍 황도리 26-5,충청남도,태안군,36.59906643,126.3835809,,2022-11-20,
77761,270453,270453,충청남도 보령시 웅천읍 관당리 888-57,충청남도,보령시,36.24771048,126.5371455,,2022-11-30,
78406,271098,271098,충청남도 예산군 예산읍 주교리 179-7,충청남도,예산군,36.68627556,126.8322347,,2022-11-30,
78897,271589,271589,충청남도 태안군 안면읍 황도리 26-5,충청남도,태안군,36.59906643,126.3835809,,2022-11-20,
78898,271590,271590,충청남도 태안군 안면읍 황도리 26-5,충청남도,태안군,36.59906643,126.3835809,,2022-11-20,
78899,271591,271591,충청남도 태안군 안면읍 황도리 26-5,충청남도,태안군,36.59906643,126.3835809,,2022-11-20,
78900,271592,271592,충청남도 태안군 안면읍 황도리 26-5,충청남도,태안군,36.59906643,126.3835809,,2022-11-20,
79269,271961,271961,충청남도 보령시 천북면 사호리 487-4,충청남도,보령시,36.47633565,126.4819804,,2022-11-30,
79311,272003,272003,충청남도 태안군 근흥면 정죽리 1268-28,충청남도,태안군,36.67839395,126.1548258,,2022-11-20,
79312,272004,272004,충청남도 태안군 근흥면 정죽리 1268-28,충청남도,태안군,36.67839395,126.1548258,,2022-11-20,
79313,272005,272005,충청남도 태안군 근흥면 정죽리 1268-28,충청남도,태안군,36.67839395,126.1548258,,2022-11-20,
79314,272006,272006,충청남도 태안군 근흥면 정죽리 1268-28,충청남도,태안군,36.67839395,126.1548258,,2022-11-20,
79315,272007,272007,충청남도 태안군 근흥면 정죽리 1268-28,충청남도,태안군,36.67839395,126.1548258,,2022-11-20,
79316,272008,272008,충청남도 태안군 근흥면 정죽리 1268-28,충청남도,태안군,36.67839395,126.1548258,,2022-11-20,
79317,272009,272009,충청남도 태안군 근흥면 정죽리 1268-28,충청남도,태안군,36.67839395,126.1548258,,2022-11-20,
79318,272010,272010,충청남도 태안군 근흥면 정죽리 1268-28,충청남도,태안군,36.67839395,126.1548258,,2022-11-20,
79319,272011,272011,충청남도 태안군 근흥면 정죽리 1268-28,충청남도,태안군,36.67839395,126.1548258,,2022-11-20,
79320,272012,272012,충청남도 태안군 근흥면 정죽리 1268-28,충청남도,태안군,36.67839395,126.1548258,,2022-11-20,
79321,272013,272013,충청남도 태안군 근흥면 정죽리 1268-28,충청남도,태안군,36.67839395,126.1548258,,2022-11-20,
79322,272014,272014,충청남도 태안군 근흥면 정죽리 1268-28,충청남도,태안군,36.67839395,126.1548258,,2022-11-20,
79323,272015,272015,충청남도 태안군 근흥면 정죽리 1268-28,충청남도,태안군,36.67839395,126.1548258,,2022-11-20,
79324,272016,272016,충청남도 태안군 근흥면 정죽리 1268-28,충청남도,태안군,36.67839395,126.1548258,,2022-11-20,
79369,272061,272061,충청남도 보령시 천북면 하만리 968-39,충청남도,보령시,36.443909,126.519521,,2022-11-30,
79710,272402,272402,충청남도 보령시 대천항1길 134,충청남도,보령시,36.32506373,126.5038904,,2022-11-30,
80243,272935,272935,음성읍 읍내리 603-3,음성읍,읍내리,36.9375709,127.6867921,,2020-06-30,
80300,272992,272992,대소면 오산리 156-2,대소면,오산리,36.9670396,127.4894037,,2020-06-30,
80387,273079,273079,음성읍 읍내리 855-55,음성읍,읍내리,36.9364359,127.6883896,,2020-06-30,
80390,273082,273082,금왕읍 무극리 358-1,금왕읍,무극리,36.9971232,127.5971991,,2020-06-30,
80422,273114,273114,금왕읍 무극리 275-14 앞,금왕읍,무극리,36.991679,127.5888201,,2020-06-30,
80739,273431,273431,진천읍 교성리 63-3번지,진천읍,교성리,36.844681,127.44247,,2020-12-15,
81391,274083,274083,대소면 삼정리 138-5,대소면,삼정리,36.962933,127.499755,,2021-09-16,
81397,274089,274089,대소면 오산리 156-2,대소면,오산리,36.9670396,127.4894037,,2021-09-16,
81588,274280,274280,금왕읍 무극리 275-14 앞,금왕읍,무극리,36.991679,127.5888201,,2021-09-16,
81621,274313,274313,금왕읍 무극리 358-1,금왕읍,무극리,36.9971232,127.5971991,,2021-09-16,
81624,274316,274316,음성읍 읍내리 855-55,음성읍,읍내리,36.9364359,127.6883896,,2021-09-16,
81653,274345,274345,삼성면 선정리 725-2,삼성면,선정리,36.9948783,127.4995478,,2021-09-16,
81707,274399,274399,음성읍 읍내리 603-3,음성읍,읍내리,36.9375709,127.6867921,,2021-09-16,
82130,274822,274822,사리면 이곡리 1050-1,사리면,이곡리,36.800771,127.709653,,2021-10-20,
82207,274899,274899,연풍면 원풍리 244-4,연풍면,원풍리,36.815221,128.024103,,2021-10-20,
82737,277495,277495,대소면 성본리 144-10,대소면,성본리,36.957726,127.529584,,2022-06-10,
82772,277561,277561,삼성면 선정리 725-2,삼성면,선정리,36.994878,127.499547,,2022-06-10,
82774,277563,277563,삼성면 선정리 725-2,삼성면,선정리,36.994878,127.499547,,2022-06-10,
82855,277705,277705,음성읍 읍내리 603-3,음성읍,읍내리,36.93757,127.686792,,2022-06-10,
82856,277706,277706,음성읍 읍내리 603-3,음성읍,읍내리,36.93757,127.686792,,2022-06-10,
82887,277737,277737,생극면 신양리 429-4,생극면,신양리,36.949574,127.520915,,2022-06-10,
82888,277738,277738,생극면 신양리 429-4,생극면,신양리,36.949574,127.520915,,2022-06-10,
82944,277836,277836,대소면 오산리 156-2,대소면,오산리,36.967039,127.489403,,2022-06-10,
82945,277837,277837,대소면 오산리 156-2,대소면,오산리,36.967039,127.489403,,2022-06-10,
83134,278420,278420,금왕읍 무극리 275-14 앞,금왕읍,무극리,36.991679,127.58882,,2022-06-10,
83183,278549,278549,대소면 삼정리 138-5,대소면,삼정리,36.962933,127.499755,,2022-06-10,
83323,278837,278837,소이면 충도리 1387-30,소이면,충도리,36.926133,127.732647,,2022-06-10,
83324,278838,278838,소이면 충도리 1387-30,소이면,충도리,36.926133,127.732647,,2022-06-10,
83549,279183,279183,음성읍 읍내리 855-55,음성읍,읍내리,36.936435,127.688389,,2022-06-10,
83552,279186,279186,금왕읍 무극리 358-1,금왕읍,무극리,36.997123,127.597199,,2022-06-10,
83881,279678,279678,생극면 신양리 429-4,생극면,신양리,36.949574,127.520915,,2022-06-10,
83882,279679,279679,생극면 신양리 429-4,생극면,신양리,36.949574,127.520915,,2022-06-10,
83986,279783,279783,음성읍 읍내리 603-3,음성읍,읍내리,36.93757,127.686792,,2022-06-10,
84022,279819,279819,음성읍 읍내리 603-3,음성읍,읍내리,36.93757,127.686792,,2022-06-10,
84064,279861,279861,삼성면 선정리 725-2,삼성면,선정리,36.994878,127.499547,,2022-06-10,
84066,279863,279863,삼성면 선정리 725-2,삼성면,선정리,36.994878,127.499547,,2022-06-10,
84143,279940,279940,대소면 성본리 144-10,대소면,성본리,36.957726,127.529584,,2022-06-10,
84377,280174,280174,대소면 오산리 156-2,대소면,오산리,36.967039,127.489403,,2022-06-10,
84378,280175,280175,대소면 오산리 156-2,대소면,오산리,36.967039,127.489403,,2022-06-10,
84652,280449,280449,금왕읍 무극리 275-14 앞,금왕읍,무극리,36.991679,127.58882,,2022-06-10,
84727,280524,280524,금왕읍 무극리 358-1,금왕읍,무극리,36.997123,127.597199,,2022-06-10,
84730,280527,280527,음성읍 읍내리 855-55,음성읍,읍내리,36.936435,127.688389,,2022-06-10,
84909,280706,280706,소이면 충도리 1387-30,소이면,충도리,36.926133,127.732647,,2022-06-10,
84910,280707,280707,소이면 충도리 1387-30,소이면,충도리,36.926133,127.732647,,2022-06-10,
84924,280721,280721,대소면 삼정리 138-5,대소면,삼정리,36.962933,127.499755,,2022-06-10,
85172,280969,280969,대소면 오산리 156-2,대소면,오산리,36.9670396,127.4894037,,2022-06-10,
85178,280975,280975,대소면 삼정리 138-5,대소면,삼정리,36.962933,127.499755,,2022-06-10,
85285,281082,281082,음성읍 읍내리 603-3,음성읍,읍내리,36.9375709,127.6867921,,2022-06-10,
85339,281136,281136,삼성면 선정리 725-2,삼성면,선정리,36.9948783,127.4995478,,2022-06-10,
85486,281283,281283,음성읍 읍내리 855-55,음성읍,읍내리,36.9364359,127.6883896,,2022-06-10,
85489,281286,281286,금왕읍 무극리 358-1,금왕읍,무극리,36.9971232,127.5971991,,2022-06-10,
85522,281319,281319,금왕읍 무극리 275-14 앞,금왕읍,무극리,36.991679,127.5888201,,2022-06-10,
