"보안등위치명",설치개수,소재지도로명주소,소재지지번주소,위도,경도,설치연도,설치형태,관리기관전화번호,관리기관명,데이터기준일자
"부산광역시 중구 대청로53번길23 (광복교회건물뒤 공중전화부스)",1,부산광역시 중구 대청로53번길23 (광복교회건물뒤 공중전화부스),부산광역시 중구 보수동1가 91-3,35.10404935,129.0255071,2020,건축물,051-600-4696,부산광역시 중구청,2023-01-03
"부산광역시 중구 대청로53번길20 (맞은편 광복교회건물뒤)",1,부산광역시 중구 대청로53번길20 (맞은편 광복교회건물뒤),부산광역시 중구 보수동1가 104-8,35.10393024,129.0257322,2020,건축물,051-600-4696,부산광역시 중구청,2023-01-03
"부산광역시 중구 대청로42-2 (계산수석)",1,부산광역시 중구 대청로42-2 (계산수석),부산광역시 중구 부평동3가 78-5,35.10301282,129.0245471,2020,건축물,051-600-4696,부산광역시 중구청,2023-01-03
"부산광역시 중구 대청로40-1",1,부산광역시 중구 대청로40-1,부산광역시 중구 부평동3가 79-6,35.10287878,129.0242682,2020,건축물,051-600-4696,부산광역시 중구청,2023-01-03
"부산광역시 중구 대청로33-1 (세광석유)",1,부산광역시 중구 대청로33-1 (세광석유),부산광역시 중구 보수동3가 70-34,35.1033561,129.0236405,2020,건축물,051-600-4696,부산광역시 중구청,2023-01-03
"부산광역시 중구 대청로33-1 (세광석유 건물뒤)",1,부산광역시 중구 대청로33-1 (세광석유 건물뒤),부산광역시 중구 보수동3가 70-34,35.1033561,129.0236405,2020,건축물,051-600-4696,부산광역시 중구청,2023-01-03
"부산광역시 중구 대청로31 (씽크할인매장건물뒤)",1,부산광역시 중구 대청로31 (씽크할인매장건물뒤),부산광역시 중구 보수동3가 70-72,35.10337253,129.0232971,2020,건축물,051-600-4696,부산광역시 중구청,2023-01-03
"부산광역시 중구 대청로25번길 3-1",1,부산광역시 중구 대청로25번길 3-1,부산광역시 중구 보수동3가 73-6,35.10348995,129.0226659,2020,건축물,051-600-4696,부산광역시 중구청,2023-01-03
"부산광역시 중구 대청로22 (향원부평타워)",1,부산광역시 중구 대청로22 (향원부평타워),부산광역시 중구 부평동4가 45,35.10295131,129.0221858,2020,건축물,051-600-4696,부산광역시 중구청,2023-01-03
"부산광역시 중구 대청로156번길9",1,부산광역시 중구 대청로156번길9,부산광역시 중구 중앙동5가 32,35.10205097,129.0372076,2020,건축물,051-600-4696,부산광역시 중구청,2023-01-03
"부산광역시 중구 대청로155번길3 (순이밥집건물)",1,부산광역시 중구 대청로155번길3 (순이밥집건물),부산광역시 중구 중앙동5가 62,35.1032462,129.0368934,2020,건축물,051-600-4696,부산광역시 중구청,2023-01-03
"부산광역시 중구 대청로141번길7-1 (충무김밥청금건물)",1,부산광역시 중구 대청로141번길7-1 (충무김밥청금건물),부산광역시 중구 중앙동3가 13-7,35.10356302,129.0351712,2020,건축물,051-600-4696,부산광역시 중구청,2023-01-03
"부산광역시 중구 대청로141번길7 (분천청국장건물)",1,부산광역시 중구 대청로141번길7 (분천청국장건물),부산광역시 중구 중앙동3가 13-9,35.1034065,129.0351979,2020,건축물,051-600-4696,부산광역시 중구청,2023-01-03
"부산광역시 중구 대영로226번안길11",1,부산광역시 중구 대영로226번안길11,부산광역시 중구 영주동 640-30,35.11021853,129.0359553,2020,건축물,051-600-4696,부산광역시 중구청,2023-01-03
"부산광역시 중구 대청로141번길5 (정덕돼지고기앞)",1,부산광역시 중구 대청로141번길5 (정덕돼지고기앞),부산광역시 중구 중앙동3가 14-10,35.10324902,129.0351941,2020,건축물,051-600-4696,부산광역시 중구청,2023-01-03
"부산광역시 중구 대청로141번길15-1(성포횟집)",1,부산광역시 중구 대청로141번길15-1(성포횟집),부산광역시 중구 중앙동4가 37-7,35.1042442,129.0350819,2020,건축물,051-600-4696,부산광역시 중구청,2023-01-03
"부산광역시 중구 대청로141번길11 (혼마골프건물)",1,부산광역시 중구 대청로141번길11 (혼마골프건물),부산광역시 중구 중앙동3가 12-5,35.10380862,129.0351423,2020,건축물,051-600-4696,부산광역시 중구청,2023-01-03
"부산광역시 중구 대청로138번길3 (갤러리604건물뒤)",1,부산광역시 중구 대청로138번길3 (갤러리604건물뒤),부산광역시 중구 중앙동2가 49-7,35.10257162,129.0351773,2020,건축물,051-600-4696,부산광역시 중구청,2023-01-03
"부산광역시 중구 대청로138번길15-1 (신수대중사우나건물)",1,부산광역시 중구 대청로138번길15-1 (신수대중사우나건물),부산광역시 중구 중앙동2가 21-1,35.10143456,129.0352718,2020,건축물,051-600-4696,부산광역시 중구청,2023-01-03
"부산광역시 중구 대청로138번길14 (월드페이퍼앞)",1,부산광역시 중구 대청로138번길14 (월드페이퍼앞),부산광역시 중구 중앙동2가 53,35.10174289,129.0349418,2020,건축물,051-600-4696,부산광역시 중구청,2023-01-03
"부산광역시 중구 대청로138번길13-2 (감나무집건물)",1,부산광역시 중구 대청로138번길13-2 (감나무집건물),부산광역시 중구 중앙동2가 22-4,35.10160847,129.0352191,2020,건축물,051-600-4696,부산광역시 중구청,2023-01-03
"부산광역시 중구 대청로138번길12 (큰집생선구이)",1,부산광역시 중구 대청로138번길12 (큰집생선구이),부산광역시 중구 중앙동2가 52-1,35.10185327,129.0350235,2020,건축물,051-600-4696,부산광역시 중구청,2023-01-03
"부산광역시 중구 대청로138번길10 (한국산업은행옆/구두수선)",1,부산광역시 중구 대청로138번길10 (한국산업은행옆구두수선),부산광역시 중구 중앙동2가 49-18,35.10202725,129.0349664,2020,건축물,051-600-4696,부산광역시 중구청,2023-01-03
"부산광역시 중구 대청로137번길8-3 (미진각앞)",1,부산광역시 중구 대청로137번길8-3 (미진각앞),부산광역시 중구 중앙동3가 13-8,35.10357206,129.0350618,2020,건축물,051-600-4696,부산광역시 중구청,2023-01-03
"부산광역시 중구 대청로137번길10 (대궁삼계탕건물)",1,부산광역시 중구 대청로137번길10 (대궁삼계탕건물),부산광역시 중구 중앙동3가 13-15,35.10365501,129.0350595,2020,건축물,051-600-4696,부산광역시 중구청,2023-01-03
"부산광역시 중구 대청로136 (한국산업은행후문앞)",1,부산광역시 중구 대청로136 (한국산업은행후문앞),부산광역시 중구 중앙동2가 44-1,35.10253766,129.0348387,2020,건축물,051-600-4696,부산광역시 중구청,2023-01-03
"부산광역시 중구 대청로136 (한국산업은행주차장입구)",1,부산광역시 중구 대청로136 (한국산업은행주차장입구),부산광역시 중구 중앙동2가 44-1,35.10253882,129.0348391,2020,건축물,051-600-4696,부산광역시 중구청,2023-01-03
"부산광역시 중구 대청로136 (한국산업은행옆/박진성한의원)",1,부산광역시 중구 대청로136 (한국산업은행옆박진성한의원),부산광역시 중구 중앙동2가 44-1,35.10253882,129.0348391,2020,건축물,051-600-4696,부산광역시 중구청,2023-01-03
"부산광역시 중구 대청로136 (한국산업은행옆)",1,부산광역시 중구 대청로136 (한국산업은행옆),부산광역시 중구 중앙동2가 44-1,35.10253766,129.0348387,2020,건축물,051-600-4696,부산광역시 중구청,2023-01-03
"부산광역시 중구 대청로135번길8 (신우정판건물)",1,부산광역시 중구 대청로135번길8 (신우정판건물),부산광역시 중구 중앙동3가 18-4,35.1034061,129.0348296,2020,건축물,051-600-4696,부산광역시 중구청,2023-01-03
"부산광역시 중구 대청로135번길36 (중앙동 공영주차장앞)",1,부산광역시 중구 대청로135번길36 (중앙동 공영주차장앞),부산광역시 중구 중앙동4가 52-3,35.10590119,129.0352469,2020,건축물,051-600-4696,부산광역시 중구청,2023-01-03
"부산광역시 중구 대청로135번길20 (고심정사앞)",1,부산광역시 중구 대청로135번길20 (고심정사앞),부산광역시 중구 중앙동4가 37-12,35.10448169,129.0349879,2020,건축물,051-600-4696,부산광역시 중구청,2023-01-03
"부산광역시 중구 대청로134번길22 (효원빌딩앞)",1,부산광역시 중구 대청로134번길22 (효원빌딩앞),부산광역시 중구 동광동2가 2-1,35.10081834,129.0350575,2020,건축물,051-600-4696,부산광역시 중구청,2023-01-03
"부산광역시 중구 대청로134번길16 (하동집옆)",1,부산광역시 중구 대청로134번길16 (하동집옆),부산광역시 중구 동광동3가 15-1,35.1014278,129.0348155,2020,건축물,051-600-4696,부산광역시 중구청,2023-01-03
"부산광역시 중구 대청로134번길 18",1,부산광역시 중구 대청로134번길 18,부산광역시 중구 동광동3가 15-2,35.1013563,129.0348408,2020,건축물,051-600-4696,부산광역시 중구청,2023-01-03
"부산광역시 중구 대청로131번길6-1 (김화남드럼)",1,부산광역시 중구 대청로131번길6-1 (김화남드럼),부산광역시 중구 동광동4가 9-1,35.10327382,129.0343614,2020,건축물,051-600-4696,부산광역시 중구청,2023-01-03
"부산광역시 중구 대청로131번길12-1 (카페별나다)",1,부산광역시 중구 대청로131번길12-1 (카페별나다),부산광역시 중구 동광동4가 12-3,35.10376959,129.0344614,2020,건축물,051-600-4696,부산광역시 중구청,2023-01-03
"부산광역시 중구 대청로131번길10 (까치원색옆)",1,부산광역시 중구 대청로131번길10 (까치원색옆),부산광역시 중구 동광동4가 12-7,35.10368146,129.0344355,2020,건축물,051-600-4696,부산광역시 중구청,2023-01-03
"부산광역시 중구 대청로131-1 (럭키프린텍옆)",1,부산광역시 중구 대청로131-1 (럭키프린텍옆),부산광역시 중구 동광동4가 3-2,35.1029785,129.0343452,2020,건축물,051-600-4696,부산광역시 중구청,2023-01-03
"부산광역시 중구 대청로126번길4 (고려당표구사옆)",1,부산광역시 중구 대청로126번길4 (고려당표구사옆),부산광역시 중구 대청동1가 39-1,35.10258959,129.0336776,2020,건축물,051-600-4696,부산광역시 중구청,2023-01-03
"부산광역시 중구 대청로126번길35 (연구실혹은)",1,부산광역시 중구 대청로126번길35 (연구실혹은),부산광역시 중구 동광동2가 11-32,35.0997899,129.0344678,2020,건축물,051-600-4696,부산광역시 중구청,2023-01-03
"부산광역시 중구 대청로126번길32-6",1,부산광역시 중구 대청로126번길32-6,부산광역시 중구 동광동2가 11-42,35.1001288,129.0343849,2020,건축물,051-600-4696,부산광역시 중구청,2023-01-03
"부산광역시 중구 대청로126번길32-2",1,부산광역시 중구 대청로126번길32-2,부산광역시 중구 동광동2가 11-35,35.10011462,129.0344495,2020,건축물,051-600-4696,부산광역시 중구청,2023-01-03
"부산광역시 중구 대청로126번길30 (경리하우스앞)",1,부산광역시 중구 대청로126번길30 (경리하우스앞),부산광역시 중구 동광동2가 17-15,35.10029692,129.0343268,2020,건축물,051-600-4696,부산광역시 중구청,2023-01-03
"부산광역시 중구 대청로126번길28 (부산관광호텔뒤)",1,부산광역시 중구 대청로126번길28 (부산관광호텔뒤),부산광역시 중구 동광동2가 17-2,35.10044149,129.0343041,2020,건축물,051-600-4696,부산광역시 중구청,2023-01-03
"부산광역시 중구 대청로126번길26 (가람주차창)",1,부산광역시 중구 대청로126번길26 (가람주차창),부산광역시 중구 동광동2가 17-4,35.1005926,129.0341061,2020,건축물,051-600-4696,부산광역시 중구청,2023-01-03
"부산광역시 중구 대청로126번길24 (한솔숯불갈비옆)",1,부산광역시 중구 대청로126번길24 (한솔숯불갈비옆),부산광역시 중구 동광동2가 17-3,35.1008124,129.0341116,2020,건축물,051-600-4696,부산광역시 중구청,2023-01-03
"부산광역시 중구 대청로126번길20 (공원집옆)",1,부산광역시 중구 대청로126번길20 (공원집옆),부산광역시 중구 동광동3가 45-3,35.10123552,129.0340288,2020,건축물,051-600-4696,부산광역시 중구청,2023-01-03
"부산광역시 중구 대청로126번길18 (동광빌딩앞)",1,부산광역시 중구 대청로126번길18 (동광빌딩앞),부산광역시 중구 동광동3가 45-1,35.10129545,129.0338955,2020,건축물,051-600-4696,부산광역시 중구청,2023-01-03
"부산광역시 중구 대청로126번길13 (약손안마방맞은편)",1,부산광역시 중구 대청로126번길13 (약손안마방맞은편),부산광역시 중구 동광동3가 28-4,35.10173083,129.034024,2020,건축물,051-600-4696,부산광역시 중구청,2023-01-03
"부산광역시 중구 대청로126번길 20(공원집 옆 전주)",1,부산광역시 중구 대청로126번길 20(공원집 옆 전주),부산광역시 중구 동광동3가 45-3,35.10123552,129.0340288,2020,건축물,051-600-4696,부산광역시 중구청,2023-01-03
"부산광역시 중구 대청로125번길8-2 (부산일보중앙지국)",1,부산광역시 중구 대청로125번길8-2 (부산일보중앙지국),부산광역시 중구 동광동4가 19-3,35.10348833,129.0338228,2020,건축물,051-600-4696,부산광역시 중구청,2023-01-03
"부산광역시 중구 대청로125번길14",1,부산광역시 중구 대청로125번길14,부산광역시 중구 대청동1가 9-27,35.10391467,129.0342205,2020,건축물,051-600-4696,부산광역시 중구청,2023-01-03
"부산광역시 중구 대청로125번길13-4",1,부산광역시 중구 대청로125번길13-4,부산광역시 중구 대청동1가 9-135,35.1039557,129.0341295,2020,건축물,051-600-4696,부산광역시 중구청,2023-01-03
"부산광역시 중구 대청로125번길13-17",1,부산광역시 중구 대청로125번길13-17,부산광역시 중구 대청동1가 9-201,35.10393593,129.0337857,2020,건축물,051-600-4696,부산광역시 중구청,2023-01-03
"부산광역시 중구 대청로125번길13-12",1,부산광역시 중구 대청로125번길13-12,부산광역시 중구 대청동1가 9-145,35.10407918,129.0338419,2020,건축물,051-600-4696,부산광역시 중구청,2023-01-03
"부산광역시 중구 대청로125번길13-10",1,부산광역시 중구 대청로125번길13-10,부산광역시 중구 대청동1가 9-7,35.10411234,129.0340138,2020,건축물,051-600-4696,부산광역시 중구청,2023-01-03
"부산광역시 중구 대청로125번길12-1",1,부산광역시 중구 대청로125번길12-1,부산광역시 중구 동광동4가 17-1,35.10375496,129.0340443,2020,건축물,051-600-4696,부산광역시 중구청,2023-01-03
"부산광역시 중구 대청로123-1 (보명필방건물뒤)",1,부산광역시 중구 대청로123-1 (보명필방건물뒤),부산광역시 중구 대청동1가 38-8,35.10295645,129.0335113,2020,건축물,051-600-4696,부산광역시 중구청,2023-01-03
"부산광역시 중구 대청로115-5 (진양봉투사맞은편)",1,부산광역시 중구 대청로115-5 (진양봉투사맞은편),부산광역시 중구 대청동1가 33-1,35.10328089,129.0324359,2020,건축물,051-600-4696,부산광역시 중구청,2023-01-03
"부산광역시 중구 대청로115-13",1,부산광역시 중구 대청로115-13,부산광역시 중구 대청동1가 33-10,35.10317437,129.0324086,2020,건축물,051-600-4696,부산광역시 중구청,2023-01-03
"부산광역시 중구 대청로107 (건물뒤)",1,부산광역시 중구 대청로107 (건물뒤),부산광역시 중구 대청동2가 7-1,35.1031292,129.0316863,2020,건축물,051-600-4696,부산광역시 중구청,2023-01-03
"부산광역시 중구 대청로101-1 (대청새마을금고)",1,부산광역시 중구 대청로101-1 (대청새마을금고),부산광역시 중구 대청동2가 14-2,35.1030417,129.0311653,2020,건축물,051-600-4696,부산광역시 중구청,2023-01-03
"부산광역시 중구 대청로101 (최용운성형외과옆)",1,부산광역시 중구 대청로101 (최용운성형외과옆),부산광역시 중구 대청동2가 16-4,35.1030596,129.0309987,2020,건축물,051-600-4696,부산광역시 중구청,2023-01-03
"부산광역시 중구 대청로 134",1,부산광역시 중구 대청로 134,부산광역시 중구 동광동3가 1-1,35.10260723,129.0345597,2020,건축물,051-600-4696,부산광역시 중구청,2023-01-03
"부산광역시 중구 대청로 132-1",1,부산광역시 중구 대청로 132-1,부산광역시 중구 동광동3가 1-2,35.10258781,129.0344277,2020,건축물,051-600-4696,부산광역시 중구청,2023-01-03
"부산광역시 중구 대영로246 (동광모터스)",1,부산광역시 중구 대영로246 (동광모터스),부산광역시 중구 대창동2가 9-7,35.1118909,129.0375887,2020,건축물,051-600-4696,부산광역시 중구청,2023-01-03
"부산광역시 중구 대영로243번길6-2 (경신당건물뒤)",1,부산광역시 중구 대영로243번길6-2 (경신당건물뒤),부산광역시 중구 영주동 31-9,35.1125362,129.0374669,2020,건축물,051-600-4696,부산광역시 중구청,2023-01-03
"부산광역시 중구 대영로243번길6-2 (경신당)",1,부산광역시 중구 대영로243번길6-2 (경신당),부산광역시 중구 영주동 31-9,35.1125362,129.0374669,2020,건축물,051-600-4696,부산광역시 중구청,2023-01-03
"부산광역시 중구 대영로243 (세명사)",1,부산광역시 중구 대영로243 (세명사),부산광역시 중구 영주동 31-3,35.11233854,129.0374294,2020,건축물,051-600-4696,부산광역시 중구청,2023-01-03
"부산광역시 중구 대영로242번안길9-1",1,부산광역시 중구 대영로242번안길9-1,부산광역시 중구 영주동 665,35.1103266,129.0355296,2020,건축물,051-600-4696,부산광역시 중구청,2023-01-03
"부산광역시 중구 대영로242번안길9",1,부산광역시 중구 대영로242번안길9,부산광역시 중구 영주동 689-1,35.11029207,129.0356544,2020,건축물,051-600-4696,부산광역시 중구청,2023-01-03
"부산광역시 중구 대영로242번안길5-10",1,부산광역시 중구 대영로242번안길5-10,부산광역시 중구 영주동 640-26,35.11020933,129.0360735,2020,건축물,051-600-4696,부산광역시 중구청,2023-01-03
"부산광역시 중구 대영로242번안길3-8  (건물옆)",1,부산광역시 중구 대영로242번안길3-8 (건물옆),부산광역시 중구 영주동 640-20,35.1102481,129.0362702,2020,건축물,051-600-4696,부산광역시 중구청,2023-01-03
"부산광역시 중구 대영로242번안길3-11",1,부산광역시 중구 대영로242번안길3-11,부산광역시 중구 영주동 640-11,35.11010336,129.0363735,2020,건축물,051-600-4696,부산광역시 중구청,2023-01-03
"부산광역시 중구 대영로242번길6-16 (오뚜기식당/도경오벨리스뒤)",1,부산광역시 중구 대영로242번길6-16 (오뚜기식당도경오벨리스뒤),부산광역시 중구 영주동 751-19,35.11149085,129.0367248,2020,건축물,051-600-4696,부산광역시 중구청,2023-01-03
"부산광역시 중구 대영로242번길3 (영주시장/영주영양탕)",1,부산광역시 중구 대영로242번길3 (영주시장영주영양탕),부산광역시 중구 영주동 751-29,35.11164138,129.0373926,2020,건축물,051-600-4696,부산광역시 중구청,2023-01-03
"부산광역시 중구 대영로242번길3 (영주시장/대영구제품앞)",1,부산광역시 중구 대영로242번길3 (영주시장대영구제품앞),부산광역시 중구 영주동 751-29,35.11164138,129.0373926,2020,건축물,051-600-4696,부산광역시 중구청,2023-01-03
"부산광역시 중구 대영로242번길22 (스카이힐건물옆 동산주차장)",1,부산광역시 중구 대영로242번길22 (스카이힐건물옆 동산주차장),부산광역시 중구 영주동 625-1,35.11014005,129.0365499,2020,건축물,051-600-4696,부산광역시 중구청,2023-01-03
"부산광역시 중구 대영로242번길18-11",1,부산광역시 중구 대영로242번길18-11,부산광역시 중구 영주동 639-3,35.11063972,129.0364176,2020,건축물,051-600-4696,부산광역시 중구청,2023-01-03
"부산광역시 중구 대영로242번길18-1",1,부산광역시 중구 대영로242번길18-1,부산광역시 중구 영주동 628,35.11037984,129.0366524,2020,건축물,051-600-4696,부산광역시 중구청,2023-01-03
"부산광역시 중구 대영로237 (기아모터스 영주점)",1,부산광역시 중구 대영로237 (기아모터스 영주점),부산광역시 중구 영주동 25-4,35.11236329,129.0366001,2020,건축물,051-600-4696,부산광역시 중구청,2023-01-03
"부산광역시 중구 대영로234-1 (대한민국 무공수훈자회)",1,부산광역시 중구 대영로234-1 (대한민국 무공수훈자회),부산광역시 중구 영주동 44,35.1118789,129.0363544,2020,건축물,051-600-4696,부산광역시 중구청,2023-01-03
"부산광역시 중구 대영로227-25 (한림철학관골목)",1,부산광역시 중구 대영로227-25 (한림철학관골목),부산광역시 중구 영주동 54-2,35.11251038,129.0357842,2020,건축물,051-600-4696,부산광역시 중구청,2023-01-03
"부산광역시 중구 대영로227-19 (한림철학관골목)",1,부산광역시 중구 대영로227-19 (한림철학관골목),부산광역시 중구 영주동 53-6,35.11250921,129.0356394,2020,건축물,051-600-4696,부산광역시 중구청,2023-01-03
"부산광역시 중구 대영로227-16 (한림철학관)",1,부산광역시 중구 대영로227-16 (한림철학관),부산광역시 중구 영주동 50-12,35.11238722,129.0356057,2020,건축물,051-600-4696,부산광역시 중구청,2023-01-03
"부산광역시 중구 대영로226번안길5 (성은상사/영주교회맞은편)",1,부산광역시 중구 대영로226번안길5 (성은상사영주교회맞은편),부산광역시 중구 영주동 642-1,35.11073944,129.0361086,2020,건축물,051-600-4696,부산광역시 중구청,2023-01-03
"부산광역시 중구 대영로226번안길10 (신흥컴퓨터크리닝)",1,부산광역시 중구 대영로226번안길10 (신흥컴퓨터크리닝),부산광역시 중구 영주동 640-32,35.11035075,129.0358094,2020,건축물,051-600-4696,부산광역시 중구청,2023-01-03
"부산광역시 중구 대영로226번안길1 (봉래초등학교앞 아폴로문방구)",1,부산광역시 중구 대영로226번안길1 (봉래초등학교앞 아폴로문방구),부산광역시 중구 영주동 649,35.11102946,129.0361773,2020,건축물,051-600-4696,부산광역시 중구청,2023-01-03
"부산광역시 중구 대영로226번길8 (봉래초등학교옆골목)",1,부산광역시 중구 대영로226번길8 (봉래초등학교옆골목),부산광역시 중구 영주동 573-1,35.11134671,129.0353166,2020,건축물,051-600-4696,부산광역시 중구청,2023-01-03
"부산광역시 중구 대영로226번길6-1 (봉래초등학교옆골목)",1,부산광역시 중구 대영로226번길6-1 (봉래초등학교옆골목),부산광역시 중구 영주동 574,35.1114606,129.035296,2020,건축물,051-600-4696,부산광역시 중구청,2023-01-03
"부산광역시 중구 대영로226번길4 (봉래초등학교옆골목)",1,부산광역시 중구 대영로226번길4 (봉래초등학교옆골목),부산광역시 중구 영주동 759-2,35.11166004,129.0353331,2020,건축물,051-600-4696,부산광역시 중구청,2023-01-03
"부산광역시 중구 대영로226번길21 (소희헤어샵)",1,부산광역시 중구 대영로226번길21 (소희헤어샵),부산광역시 중구 영주동 584-3,35.11127262,129.0367229,2020,건축물,051-600-4696,부산광역시 중구청,2023-01-03
"부산광역시 중구 대영로226번길20 (아이린)",1,부산광역시 중구 대영로226번길20 (아이린),부산광역시 중구 영주동 635-2,35.11111269,129.0365873,2020,건축물,051-600-4696,부산광역시 중구청,2023-01-03
"부산광역시 중구 대영로226번길18-1 (일신맨션)",1,부산광역시 중구 대영로226번길18-1 (일신맨션),부산광역시 중구 영주동 636-1,35.11105048,129.0364278,2020,건축물,051-600-4696,부산광역시 중구청,2023-01-03
"부산광역시 중구 대영로226번길15 (봉래초등학교안 건물뒤쪽)",1,부산광역시 중구 대영로226번길15 (봉래초등학교안 건물뒤쪽),부산광역시 중구 영주동 582-2,35.11139514,129.0355665,2020,건축물,051-600-4696,부산광역시 중구청,2023-01-03
"부산광역시 중구 대영로226번길15 (봉래초등학교뒤대로)",1,부산광역시 중구 대영로226번길15 (봉래초등학교뒤대로),부산광역시 중구 영주동 582-2,35.11139514,129.0355665,2020,건축물,051-600-4696,부산광역시 중구청,2023-01-03
"부산광역시 중구 대영로226번길14 (봉래초등학교앞)",1,부산광역시 중구 대영로226번길14 (봉래초등학교앞),부산광역시 중구 영주동 655,35.11103432,129.0358879,2020,건축물,051-600-4696,부산광역시 중구청,2023-01-03
"부산광역시 중구 대영로226번길10-1(봉래초등뒷편)",1,부산광역시 중구 대영로226번길10-1(봉래초등뒷편),부산광역시 중구 영주동 668-5,35.11101536,129.0355145,2020,건축물,051-600-4696,부산광역시 중구청,2023-01-03
"부산광역시 중구 대영로226번길 4",1,부산광역시 중구 대영로226번길 4,부산광역시 중구 영주동 759-2,35.11166004,129.0353331,2020,건축물,051-600-4696,부산광역시 중구청,2023-01-03
"부산광역시 중구 대영로224번길8-1 (민하우스뒤)",1,부산광역시 중구 대영로224번길8-1 (민하우스뒤),부산광역시 중구 영주동 555-11,35.1112618,129.0349813,2020,건축물,051-600-4696,부산광역시 중구청,2023-01-03
"부산광역시 중구 대영로224번길6-6",1,부산광역시 중구 대영로224번길6-6,부산광역시 중구 영주동 556-15,35.11147652,129.0348565,2020,건축물,051-600-4696,부산광역시 중구청,2023-01-03
"부산광역시 중구 대영로224번길6-5 (봉래전당포)",1,부산광역시 중구 대영로224번길6-5 (봉래전당포),부산광역시 중구 영주동 555-6,35.11133567,129.0348474,2020,건축물,051-600-4696,부산광역시 중구청,2023-01-03
"부산광역시 중구 대영로224번길18-6",1,부산광역시 중구 대영로224번길18-6,부산광역시 중구 영주동 679-7,35.11045806,129.0350006,2020,건축물,051-600-4696,부산광역시 중구청,2023-01-03
"부산광역시 중구 대영로223 (모자이크교회 옆건물)",1,부산광역시 중구 대영로223 (모자이크교회 옆건물),부산광역시 중구 영주동 58-24,35.11234031,129.0351792,2020,건축물,051-600-4696,부산광역시 중구청,2023-01-03
"부산광역시 중구 대영로217(삼오종합건설) 뒷골목",1,부산광역시 중구 대영로217(삼오종합건설) 뒷골목,부산광역시 중구 영주동 58-16,35.11236827,129.0345875,2020,건축물,051-600-4696,부산광역시 중구청,2023-01-03
"부산광역시 중구 대영로216-2 (모터플러스옆)",1,부산광역시 중구 대영로216-2 (모터플러스옆),부산광역시 중구 영주동 511-33,35.11175831,129.0342038,2020,건축물,051-600-4696,부산광역시 중구청,2023-01-03
"부산광역시 중구 대영로215번길4(예뜨랑II)",1,부산광역시 중구 대영로215번길4(예뜨랑II),부산광역시 중구 영주동 60-13,35.11268565,129.0345778,2020,건축물,051-600-4696,부산광역시 중구청,2023-01-03
"부산광역시 중구 대영로215번길2(예뜨랑I)",1,부산광역시 중구 대영로215번길2(예뜨랑I),부산광역시 중구 영주동 60-73,35.1125168,129.0345942,2020,건축물,051-600-4696,부산광역시 중구청,2023-01-03
"부산광역시 중구 대영로 237 (기아자동차 큐 서비스 앞, 가로등 선로)",1,"부산광역시 중구 대영로 237 (기아자동차 큐 서비스 앞, 가로등 선로)",부산광역시 중구 영주동 25-4,35.11236329,129.0366001,2020,건축물,051-600-4696,부산광역시 중구청,2023-01-03
"부산광역시 중구 대영로 227(가로등 선로)",1,부산광역시 중구 대영로 227(가로등 선로),부산광역시 중구 영주동 49-10,35.11232685,129.0355515,2020,건축물,051-600-4696,부산광역시 중구청,2023-01-03
"부산광역시 중구 대영로 227",1,부산광역시 중구 대영로 227,부산광역시 중구 영주동 49-10,35.11232685,129.0355515,2020,건축물,051-600-4696,부산광역시 중구청,2023-01-03
"부산광역시 중구 대교로103 (송림상사건물)",1,부산광역시 중구 대교로103 (송림상사건물),부산광역시 중구 중앙동6가 9-1,35.09941658,129.0374693,2020,건축물,051-600-4696,부산광역시 중구청,2023-01-03
"부산광역시 중구 남포길29-1 (우리집)",1,부산광역시 중구 남포길29-1 (우리집),부산광역시 중구 남포동2가 12-2,35.0986567,129.0320884,2020,건축물,051-600-4696,부산광역시 중구청,2023-01-03
"부산광역시 중구 남포길27",1,부산광역시 중구 남포길27,부산광역시 중구 남포동2가 14-7,35.0987695,129.0318573,2020,건축물,051-600-4696,부산광역시 중구청,2023-01-03
"부산광역시 중구 남포길25-3 (할매집회국수)",1,부산광역시 중구 남포길25-3 (할매집회국수),부산광역시 중구 남포동2가 15-4,35.09885092,129.0314562,2020,건축물,051-600-4696,부산광역시 중구청,2023-01-03
"부산광역시 중구 남포길24 (후타고 맞은편 건물뒤)",1,부산광역시 중구 남포길24 (후타고 맞은편 건물뒤),부산광역시 중구 남포동2가 22-5,35.09863445,129.0313031,2020,건축물,051-600-4696,부산광역시 중구청,2023-01-03
"부산광역시 중구 남포길13",1,부산광역시 중구 남포길13,부산광역시 중구 남포동3가 10-1,35.09897696,129.0302808,2020,건축물,051-600-4696,부산광역시 중구청,2023-01-03
"부산광역시 중구 남포길12 (마마카츠 돈카츠전문점)",1,부산광역시 중구 남포길12 (마마카츠 돈카츠전문점),부산광역시 중구 남포동3가 13-4,35.09883719,129.0300824,2020,건축물,051-600-4696,부산광역시 중구청,2023-01-03
"부산광역시 중구 남포길 25",1,부산광역시 중구 남포길 25,부산광역시 중구 남포동2가 14-6,35.0987405,129.0316628,2020,건축물,051-600-4696,부산광역시 중구청,2023-01-03
"부산광역시 중구 남포길 22-1",1,부산광역시 중구 남포길 22-1,부산광역시 중구 남포동2가 21-4,35.0986282,129.0311846,2020,건축물,051-600-4696,부산광역시 중구청,2023-01-03
"부산광역시 중구 국제시장2길9 (6공구A동-B동연결다리)",1,부산광역시 중구 국제시장2길9 (6공구A동-B동연결다리),부산광역시 중구 신창동4가 20-3,35.1002392,129.0283076,2020,건축물,051-600-4696,부산광역시 중구청,2023-01-03
"부산광역시 중구 국제시장2길9 (6공구A동 2층계단입구)",1,부산광역시 중구 국제시장2길9 (6공구A동 2층계단입구),부산광역시 중구 신창동4가 20-3,35.1002392,129.0283076,2020,건축물,051-600-4696,부산광역시 중구청,2023-01-03
"부산광역시 중구 국제시장2길6-3 (항아리짬뽕)",1,부산광역시 중구 국제시장2길6-3 (항아리짬뽕),부산광역시 중구 창선동2가 25,35.09996735,129.0286123,2020,건축물,051-600-4696,부산광역시 중구청,2023-01-03
"부산광역시 중구 국제시장2길5 (창선상가A동/대영전자)",1,부산광역시 중구 국제시장2길5 (창선상가A동대영전자),부산광역시 중구 창선동2가 34-6,35.09970556,129.0283163,2020,건축물,051-600-4696,부산광역시 중구청,2023-01-03
"부산광역시 중구 국제시장2길5 (창선상가A동 거인상사)",1,부산광역시 중구 국제시장2길5 (창선상가A동 거인상사),부산광역시 중구 창선동2가 34-6,35.09970556,129.0283163,2020,건축물,051-600-4696,부산광역시 중구청,2023-01-03
"부산광역시 중구 국제시장2길34",1,부산광역시 중구 국제시장2길34,부산광역시 중구 신창동4가 3-2,35.1024466,129.0285396,2020,건축물,051-600-4696,부산광역시 중구청,2023-01-03
"부산광역시 중구 국제시장2길33 (1공구A동-B동 연결다리)",1,부산광역시 중구 국제시장2길33 (1공구A동-B동 연결다리),부산광역시 중구 신창동4가 49-7,35.10238046,129.0283037,2020,건축물,051-600-4696,부산광역시 중구청,2023-01-03
"부산광역시 중구 국제시장2길33 (1공구A동-2공구A동 연결다리)",1,부산광역시 중구 국제시장2길33 (1공구A동-2공구A동 연결다리),부산광역시 중구 신창동4가 49-7,35.10238046,129.0283037,2020,건축물,051-600-4696,부산광역시 중구청,2023-01-03
"부산광역시 중구 국제시장2길29 (2공구A동-B동 연결다리)",1,부산광역시 중구 국제시장2길29 (2공구A동-B동 연결다리),부산광역시 중구 신창동4가 56-4,35.1019491,129.0283195,2020,건축물,051-600-4696,부산광역시 중구청,2023-01-03
"부산광역시 중구 국제시장2길29 (2공구A동-3공구A동 연결다리)",1,부산광역시 중구 국제시장2길29 (2공구A동-3공구A동 연결다리),부산광역시 중구 신창동4가 56-4,35.1019491,129.0283195,2020,건축물,051-600-4696,부산광역시 중구청,2023-01-03
"부산광역시 중구 국제시장2길29 (2공구A동)",1,부산광역시 중구 국제시장2길29 (2공구A동),부산광역시 중구 신창동4가 56-4,35.10194766,129.0283018,2020,건축물,051-600-4696,부산광역시 중구청,2023-01-03
"부산광역시 중구 국제시장2길26 (해바라기가방)",1,부산광역시 중구 국제시장2길26 (해바라기가방),부산광역시 중구 신창동4가 10-1,35.10154786,129.0285678,2020,건축물,051-600-4696,부산광역시 중구청,2023-01-03
"부산광역시 중구 국제시장2길25 (3공구A동-B동 연결다리)",1,부산광역시 중구 국제시장2길25 (3공구A동-B동 연결다리),부산광역시 중구 신창동4가 56-4,35.1015398,129.0283264,2020,건축물,051-600-4696,부산광역시 중구청,2023-01-03
"부산광역시 중구 국제시장2길25 (3공구A동-4공구A동 연결다리)                       (",1,부산광역시 중구 국제시장2길25 (3공구A동-B동 연결다리),부산광역시 중구 신창동4가 56-4,35.1015398,129.0283264,2020,건축물,051-600-4696,부산광역시 중구청,2023-01-03
"부산광역시 중구 국제시장2길25 (3공구A동 슈가)",1,부산광역시 중구 국제시장2길25 (3공구A동 슈가),부산광역시 중구 신창동4가 56-4,35.10154027,129.0283106,2020,건축물,051-600-4696,부산광역시 중구청,2023-01-03
"부산광역시 중구 국제시장2길25 (3공구A동 대명혼수이불)",1,부산광역시 중구 국제시장2길25 (3공구A동 대명혼수이불),부산광역시 중구 신창동4가 56-4,35.1015398,129.0283264,2020,건축물,051-600-4696,부산광역시 중구청,2023-01-03
"부산광역시 중구 국제시장2길2",1,부산광역시 중구 국제시장2길2,부산광역시 중구 창선동2가 23-2,35.09957438,129.0286157,2020,건축물,051-600-4696,부산광역시 중구청,2023-01-03
"부산광역시 중구 국제시장2길19 (4공구A동-B동 연결다리)",1,부산광역시 중구 국제시장2길19 (4공구A동-B동 연결다리),부산광역시 중구 신창동4가 56-4,35.10111875,129.0283075,2020,건축물,051-600-4696,부산광역시 중구청,2023-01-03
"부산광역시 중구 국제시장2길19 (4공구A동-5공구A동 연결다리)",1,부산광역시 중구 국제시장2길19 (4공구A동-5공구A동 연결다리),부산광역시 중구 신창동4가 56-4,35.10111875,129.0283075,2020,건축물,051-600-4696,부산광역시 중구청,2023-01-03
"부산광역시 중구 국제시장2길19 (4공구A동 개방화장실앞)",1,부산광역시 중구 국제시장2길19 (4공구A동 개방화장실앞),부산광역시 중구 신창동4가 56-4,35.10111875,129.0283075,2020,건축물,051-600-4696,부산광역시 중구청,2023-01-03
"부산광역시 중구 국제시장2길16 (부산가방)",1,부산광역시 중구 국제시장2길16 (부산가방),부산광역시 중구 신창동4가 15-2,35.10064471,129.0285886,2020,건축물,051-600-4696,부산광역시 중구청,2023-01-03
"부산광역시 중구 국제시장2길15 (5공구A동-B동 연결다리)",1,부산광역시 중구 국제시장2길15 (5공구A동-B동 연결다리),부산광역시 중구 신창동4가 29-1,35.10069272,129.028308,2020,건축물,051-600-4696,부산광역시 중구청,2023-01-03
"부산광역시 중구 국제시장2길15 (5공구A동-6공구A동 연결다리)",1,부산광역시 중구 국제시장2길15 (5공구A동-6공구A동 연결다리),부산광역시 중구 신창동4가 29-1,35.10069312,129.028308,2020,건축물,051-600-4696,부산광역시 중구청,2023-01-03
"부산광역시 중구 국제시장2길15 (5공구A동/크로바모자)",1,부산광역시 중구 국제시장2길15 (5공구A동크로바모자),부산광역시 중구 신창동4가 29-1,35.10069312,129.028308,2020,건축물,051-600-4696,부산광역시 중구청,2023-01-03
"부산광역시 중구 국제시장2길15 (5공구A동 전포가방백화점)",1,부산광역시 중구 국제시장2길15 (5공구A동 전포가방백화점),부산광역시 중구 신창동4가 29-1,35.10069312,129.0283929,2020,건축물,051-600-4696,부산광역시 중구청,2023-01-03
"부산광역시 중구 국제시장2길12-1",1,부산광역시 중구 국제시장2길12-1,부산광역시 중구 신창동4가 18-1,35.10035341,129.0285912,2020,건축물,051-600-4696,부산광역시 중구청,2023-01-03
"부산광역시 중구 구덕로93 (자갈치주차장/함안초재위)",1,부산광역시 중구 구덕로93 (자갈치주차장함안초재위),부산광역시 중구 남포동6가 118,35.09643848,129.0260079,2020,건축물,051-600-4696,부산광역시 중구청,2023-01-03
"부산광역시 중구 구덕로93 (자갈치주차장/태욱장 맞은편))",1,부산광역시 중구 구덕로93 (자갈치주차장태욱장 맞은편)),부산광역시 중구 남포동6가 118,35.09643848,129.0260079,2020,건축물,051-600-4696,부산광역시 중구청,2023-01-03
"부산광역시 중구 구덕로93 (자갈치주차장/준희길커피위)",1,부산광역시 중구 구덕로93 (자갈치주차장준희길커피위),부산광역시 중구 남포동6가 118,35.09643848,129.0260079,2020,건축물,051-600-4696,부산광역시 중구청,2023-01-03
"부산광역시 중구 구덕로93 (자갈치주차장/동남천막 맞은편)",1,부산광역시 중구 구덕로93 (자갈치주차장동남천막 맞은편),부산광역시 중구 남포동6가 118,35.09643848,129.0260079,2020,건축물,051-600-4696,부산광역시 중구청,2023-01-03
"부산광역시 중구 구덕로64-13 (삼정전당포)",1,부산광역시 중구 구덕로64-13 (삼정전당포),부산광역시 중구 남포동5가 36-11,35.09814448,129.0286595,2020,건축물,051-600-4696,부산광역시 중구청,2023-01-03
"부산광역시 중구 구덕로6 (취미양복 건물뒤)",1,부산광역시 중구 구덕로6 (취미양복 건물뒤),부산광역시 중구 광복동1가 43,35.0982063,129.0347852,2020,건축물,051-600-4696,부산광역시 중구청,2023-01-03
"부산광역시 중구 고가길46-12",1,부산광역시 중구 고가길46-12,부산광역시 중구 보수동1가 146-42,35.1043741,129.0275459,2020,건축물,051-600-4696,부산광역시 중구청,2023-01-03
"부산광역시 중구 구덕로34번길9-21",1,부산광역시 중구 구덕로34번길9-21,부산광역시 중구 남포동2가 14-8,35.09881197,129.0317373,2020,건축물,051-600-4696,부산광역시 중구청,2023-01-03
"부산광역시 중구 구덕로3-16 (천광식품뒷건물)",1,부산광역시 중구 구덕로3-16 (천광식품뒷건물),부산광역시 중구 남포동1가 58-1,35.09731566,129.0350884,2020,건축물,051-600-4696,부산광역시 중구청,2023-01-03
"부산광역시 중구 구덕로14번길3-1 (화화촌)",1,부산광역시 중구 구덕로14번길3-1 (화화촌),부산광역시 중구 광복동1가 56-1,35.0982282,129.0340254,2020,건축물,051-600-4696,부산광역시 중구청,2023-01-03
"부산광역시 중구 구덕로14번길2 (아이리스정석남)",1,부산광역시 중구 구덕로14번길2 (아이리스정석남),부산광역시 중구 광복동1가 51-3,35.0980801,129.0341694,2020,건축물,051-600-4696,부산광역시 중구청,2023-01-03
"부산광역시 중구 구덕로14번길2 (아이리스 정석남)",1,부산광역시 중구 구덕로14번길2 (아이리스 정석남),부산광역시 중구 광복동1가 51-3,35.0980801,129.0341694,2020,건축물,051-600-4696,부산광역시 중구청,2023-01-03
"부산광역시 중구 구덕로 93(자갈치 주차장 위)",1,부산광역시 중구 구덕로 93(자갈치 주차장 위),부산광역시 중구 남포동6가 118,35.09643848,129.0260079,2020,건축물,051-600-4696,부산광역시 중구청,2023-01-03
"부산광역시 중구 광복중앙로34 (옥정주차장)",1,부산광역시 중구 광복중앙로34 (옥정주차장),부산광역시 중구 대청동2가 25-2,35.10241073,129.0311454,2020,건축물,051-600-4696,부산광역시 중구청,2023-01-03
"부산광역시 중구 광복중앙로33번길9-1 (옆소방도로)",1,부산광역시 중구 광복중앙로33번길9-1 (옆소방도로),부산광역시 중구 신창동1가 36-8,35.10213992,129.0299031,2020,건축물,051-600-4696,부산광역시 중구청,2023-01-03
"부산광역시 중구 광복중앙로33번길14-2",1,부산광역시 중구 광복중앙로33번길14-2,부산광역시 중구 신창동2가 2-7,35.10227902,129.0294109,2020,건축물,051-600-4696,부산광역시 중구청,2023-01-03
"부산광역시 중구 광복중앙로33번길13 (수제왕돈까스)",1,부산광역시 중구 광복중앙로33번길13 (수제왕돈까스),부산광역시 중구 신창동2가 4-1,35.10208665,129.0294894,2020,건축물,051-600-4696,부산광역시 중구청,2023-01-03
"부산광역시 중구 광복중앙로33번길10 (원주차장)",1,부산광역시 중구 광복중앙로33번길10 (원주차장),부산광역시 중구 신창동1가 38-6,35.10238261,129.0299252,2020,건축물,051-600-4696,부산광역시 중구청,2023-01-03
"부산광역시 중구 광복중앙로33번길 9-1",1,부산광역시 중구 광복중앙로33번길 9-1,부산광역시 중구 신창동1가 36-8,35.10213992,129.0299031,2020,건축물,051-600-4696,부산광역시 중구청,2023-01-03
"부산광역시 중구 광복중앙로33번길 11-3",1,부산광역시 중구 광복중앙로33번길 11-3,부산광역시 중구 신창동1가 35-7,35.10202562,129.0296897,2020,건축물,051-600-4696,부산광역시 중구청,2023-01-03
"부산광역시 중구 광복중앙로26-1 (건물뒤)",1,부산광역시 중구 광복중앙로26-1 (건물뒤),부산광역시 중구 대청동2가 36-1,35.10168427,129.031093,2020,건축물,051-600-4696,부산광역시 중구청,2023-01-03
"부산광역시 중구 광복중앙로24번길8-1 (고사우스)",1,부산광역시 중구 광복중앙로24번길8-1 (고사우스),부산광역시 중구 대청동2가 30-13,35.10200491,129.0313573,2020,건축물,051-600-4696,부산광역시 중구청,2023-01-03
"부산광역시 중구 광복중앙로24번길6 (빈티지아이)",1,부산광역시 중구 광복중앙로24번길6 (빈티지아이),부산광역시 중구 대청동2가 38,35.1017635,129.0313499,2020,건축물,051-600-4696,부산광역시 중구청,2023-01-03
"부산광역시 중구 광복중앙로24번길4-1",1,부산광역시 중구 광복중앙로24번길4-1,부산광역시 중구 광복동3가 5-16,35.1014869,129.0312652,2020,건축물,051-600-4696,부산광역시 중구청,2023-01-03
"부산광역시 중구 광복중앙로21 (대각사옆)",1,부산광역시 중구 광복중앙로21 (대각사옆),부산광역시 중구 신창동1가 6-1,35.10130654,129.0306544,2020,건축물,051-600-4696,부산광역시 중구청,2023-01-03
"부산광역시 중구 광복중앙로14-56 (마리아사진관)",1,부산광역시 중구 광복중앙로14-56 (마리아사진관),부산광역시 중구 광복동3가 5-26,35.1005482,129.0313917,2020,건축물,051-600-4696,부산광역시 중구청,2023-01-03
"부산광역시 중구 광복중앙로14-24",1,부산광역시 중구 광복중앙로14-24,부산광역시 중구 광복동3가 5-36,35.10041164,129.0313559,2020,건축물,051-600-4696,부산광역시 중구청,2023-01-03
"부산광역시 중구 광복중앙로14-12",1,부산광역시 중구 광복중앙로14-12,부산광역시 중구 광복동3가 6,35.10053142,129.0313062,2020,건축물,051-600-4696,부산광역시 중구청,2023-01-03
"부산광역시 중구 광복중앙로13 (부산은행신창동지점)",1,부산광역시 중구 광복중앙로13 (부산은행신창동지점),부산광역시 중구 신창동1가 8-2,35.10060119,129.0309021,2020,건축물,051-600-4696,부산광역시 중구청,2023-01-03
"부산광역시 중구 광복중앙로 1(창선치안센터)",1,부산광역시 중구 광복중앙로 1(창선치안센터),부산광역시 중구 창선동1가 44,35.09947039,129.0311659,2020,건축물,051-600-4696,부산광역시 중구청,2023-01-03
"부산광역시 중구 광복로97번길25-1 (조흥빌딩별관앞)",1,부산광역시 중구 광복로97번길25-1 (조흥빌딩별관앞),부산광역시 중구 동광동2가 16-1,35.10096533,129.0345497,2020,건축물,051-600-4696,부산광역시 중구청,2023-01-03
"부산광역시 중구 광복로97번길24 (동광상호신용금고건물뒤)",1,부산광역시 중구 광복로97번길24 (동광상호신용금고건물뒤),부산광역시 중구 동광동2가 3-1,35.1006883,129.0350655,2020,건축물,051-600-4696,부산광역시 중구청,2023-01-03
"부산광역시 중구 광복로97번길23 (부산관광호텔옆)",1,부산광역시 중구 광복로97번길23 (부산관광호텔옆),부산광역시 중구 동광동2가 12-1,35.1002923,129.0346289,2020,건축물,051-600-4696,부산광역시 중구청,2023-01-03
"부산광역시 중구 광복로97번길19-11",1,부산광역시 중구 광복중앙로13 (부산은행신창동지점),부산광역시 중구 신창동1가 8-2,35.10060119,129.0309021,2020,건축물,051-600-4696,부산광역시 중구청,2023-01-03
"부산광역시 중구 광복로97번길18 (동양빌딩건물뒤)",1,부산광역시 중구 광복로97번길18 (동양빌딩건물뒤),부산광역시 중구 동광동2가 4,35.10023285,129.0353516,2020,건축물,051-600-4696,부산광역시 중구청,2023-01-03
"부산광역시 중구 광복로94 (건물뒤)",1,부산광역시 중구 광복로94 (건물뒤),부산광역시 중구 광복동1가 37-3,35.09855852,129.0351822,2020,건축물,051-600-4696,부산광역시 중구청,2023-01-03
"부산광역시 중구 광복로91-12 (차이나궁)",1,부산광역시 중구 광복로91-12 (차이나궁),부산광역시 중구 광복동1가 30-4,35.09890659,129.0349063,2020,건축물,051-600-4696,부산광역시 중구청,2023-01-03
"부산광역시 중구 광복로90-1 (농협부산지점건물뒤)",1,부산광역시 중구 광복로90-1 (농협부산지점건물뒤),부산광역시 중구 광복동1가 38-6,35.09839508,129.0348849,2020,건축물,051-600-4696,부산광역시 중구청,2023-01-03
"부산광역시 중구 광복로90 (로데오헤어)",1,부산광역시 중구 광복로90 (로데오헤어),부산광역시 중구 광복동1가 38-7,35.09849347,129.0348215,2020,건축물,051-600-4696,부산광역시 중구청,2023-01-03
"부산광역시 중구 광복로88 (하모니빌딩건물뒤)",1,부산광역시 중구 광복로88 (하모니빌딩건물뒤),부산광역시 중구 광복동1가 45,35.09839129,129.0345474,2020,건축물,051-600-4696,부산광역시 중구청,2023-01-03
"부산광역시 중구 광복로85번길15-1 (섬진강재첩국앞)",1,부산광역시 중구 광복로85번길15-1 (섬진강재첩국앞),부산광역시 중구 동광동2가 10-6,35.0997687,129.0347699,2020,건축물,051-600-4696,부산광역시 중구청,2023-01-03
"부산광역시 중구 광복로85번길15",1,부산광역시 중구 광복로85번길15,부산광역시 중구 동광동2가 10-5,35.0996684,129.0346081,2020,건축물,051-600-4696,부산광역시 중구청,2023-01-03
"부산광역시 중구 광복로85번길11",1,부산광역시 중구 광복로67번길30-18 (동산장모텔옆),부산광역시 중구 광복동3가 5-6,35.10001406,129.0316233,2020,건축물,051-600-4696,부산광역시 중구청,2023-01-03
"부산광역시 중구 광복로6번길10-1 (금성아파트)",1,부산광역시 중구 광복로6번길10-1 (금성아파트),부산광역시 중구 부평동2가 47-14,35.0986733,129.0255497,2020,건축물,051-600-4696,부산광역시 중구청,2023-01-03
"부산광역시 중구 광복로68",1,부산광역시 중구 광복로68,부산광역시 중구 광복동2가 38-2,35.0987493,129.0322179,2020,건축물,051-600-4696,부산광역시 중구청,2023-01-03
"부산광역시 중구 광복로67번길8-9 (로얄관광호텔옆골목)",1,부산광역시 중구 광복로67번길8-9 (로얄관광호텔옆골목),부산광역시 중구 광복동2가 2-73,35.09920525,129.0329028,2020,건축물,051-600-4696,부산광역시 중구청,2023-01-03
"부산광역시 중구 광복로67번길8-6(CCTV)",1,부산광역시 중구 광복로67번길8-6(CCTV),부산광역시 중구 광복동2가 2-15,35.09906067,129.0328136,2020,건축물,051-600-4696,부산광역시 중구청,2023-01-03
"부산광역시 중구 광복로67번길30-18 (동산장모텔옆)",1,부산광역시 중구 광복로67번길30-18 (동산장모텔옆),부산광역시 중구 광복동3가 5-6,35.10001426,129.0316224,2020,건축물,051-600-4696,부산광역시 중구청,2023-01-03
"부산광역시 중구 광복로67번길30-18 (동산장모텔옆 건물)",1,부산광역시 중구 광복로67번길30-18 (동산장모텔옆 건물),부산광역시 중구 광복동3가 5-6,35.10001426,129.0316224,2020,건축물,051-600-4696,부산광역시 중구청,2023-01-03
"부산광역시 중구 광복로67번길28 (ABC마트 유료주차장)",1,부산광역시 중구 광복로67번길28 (ABC마트 유료주차장),부산광역시 중구 광복동2가 2-11,35.09969094,129.0318198,2020,건축물,051-600-4696,부산광역시 중구청,2023-01-03
"부산광역시 중구 광복로67번길20-3",1,부산광역시 중구 광복로67번길20-3,부산광역시 중구 광복동2가 2-57,35.09949252,129.0319981,2020,건축물,051-600-4696,부산광역시 중구청,2023-01-03
"부산광역시 중구 광복로67번길20-20",1,부산광역시 중구 광복로67번길20-20,부산광역시 중구 광복동2가 2-51,35.0996338,129.0320875,2020,건축물,051-600-4696,부산광역시 중구청,2023-01-03
"부산광역시 중구 광복로67번길20-12",1,부산광역시 중구 광복로67번길20-12,부산광역시 중구 광복동2가 2-53,35.0995605,129.0321228,2020,건축물,051-600-4696,부산광역시 중구청,2023-01-03
"부산광역시 중구 광복로67번길11",1,부산광역시 중구 광복로67번길11,부산광역시 중구 광복동2가 2-42,35.0991448,129.0324576,2020,건축물,051-600-4696,부산광역시 중구청,2023-01-03
"부산광역시 중구 광복로67번길 18",1,부산광역시 중구 광복로67번길 18,부산광역시 중구 광복동2가 2-60,35.09938613,129.0321068,2020,건축물,051-600-4696,부산광역시 중구청,2023-01-03
"부산광역시 중구 광복로59-1 (건물뒤 고갈비골목)",1,부산광역시 중구 광복로59-1 (건물뒤 고갈비골목),부산광역시 중구 광복동2가 11-1,35.09934102,129.0317495,2020,건축물,051-600-4696,부산광역시 중구청,2023-01-03
"부산광역시 중구 광복로56-14 (할매가야밀면)",1,부산광역시 중구 광복로56-14 (할매가야밀면),부산광역시 중구 남포동2가 17-1,35.09893594,129.0312228,2020,건축물,051-600-4696,부산광역시 중구청,2023-01-03
"부산광역시 중구 광복로55번길9 (광복동주민센터 맞은편)",1,부산광역시 중구 광복로55번길9 (광복동주민센터 맞은편),부산광역시 중구 창선동1가 29-2,35.0997022,129.0303892,2020,건축물,051-600-4696,부산광역시 중구청,2023-01-03
"부산광역시 중구 광복로55번길14-2 (옥샘탕)",1,부산광역시 중구 광복로55번길14-2 (옥샘탕),부산광역시 중구 창선동1가 9-9,35.09988893,129.0298516,2020,건축물,051-600-4696,부산광역시 중구청,2023-01-03
"부산광역시 중구 광복로55번길13 (삼송초밥)",1,부산광역시 중구 광복로55번길13 (삼송초밥),부산광역시 중구 창선동1가 13-1,35.0996859,129.0298792,2020,건축물,051-600-4696,부산광역시 중구청,2023-01-03
"부산광역시 중구 광복로55번길13",1,부산광역시 중구 광복로55번길13,부산광역시 중구 창선동1가 13-1,35.0996859,129.0298792,2020,건축물,051-600-4696,부산광역시 중구청,2023-01-03
"부산광역시 중구 광복로55번길11 (광복동주민센터 맞은편)",1,부산광역시 중구 광복로55번길11 (광복동주민센터 맞은편),부산광역시 중구 창선동1가 19-1,35.09970238,129.0302286,2020,건축물,051-600-4696,부산광역시 중구청,2023-01-03
"부산광역시 중구 광복로55번길 9",1,부산광역시 중구 광복로55번길 9,부산광역시 중구 창선동1가 29-2,35.0997022,129.0303892,2020,건축물,051-600-4696,부산광역시 중구청,2023-01-03
"부산광역시 중구 광복로49번길7 (종각집)",1,부산광역시 중구 광복로49번길7 (종각집),부산광역시 중구 창선동1가 8-4,35.0998444,129.0305316,2020,건축물,051-600-4696,부산광역시 중구청,2023-01-03
"부산광역시 중구 광복로49번길5-1",1,부산광역시 중구 광복로49번길5-1,부산광역시 중구 창선동1가 29-1,35.09971238,129.0304933,2020,건축물,051-600-4696,부산광역시 중구청,2023-01-03
"부산광역시 중구 광복로49번길38 (대궐쌈밥건물)",1,부산광역시 중구 광복로49번길38 (대궐쌈밥건물),부산광역시 중구 대청동2가 23-3,35.10258243,129.0304769,2020,건축물,051-600-4696,부산광역시 중구청,2023-01-03
"부산광역시 중구 광복로49번길35 (운정한의원)",1,부산광역시 중구 광복로49번길35 (운정한의원),부산광역시 중구 신창동1가 38-1,35.10238095,129.0302117,2020,건축물,051-600-4696,부산광역시 중구청,2023-01-03
"부산광역시 중구 광복로49번길33",1,부산광역시 중구 광복로49번길33,부산광역시 중구 신창동1가 30-1,35.1021509,129.0302448,2020,건축물,051-600-4696,부산광역시 중구청,2023-01-03
"부산광역시 중구 광복로49번길31 (진마트광복점)",1,부산광역시 중구 광복로49번길31 (진마트광복점),부산광역시 중구 신창동1가 32-1,35.10192695,129.0302004,2020,건축물,051-600-4696,부산광역시 중구청,2023-01-03
"부산광역시 중구 광복로49번길27",1,부산광역시 중구 광복로49번길27,부산광역시 중구 신창동1가 29-1,35.10173885,129.0302396,2020,건축물,051-600-4696,부산광역시 중구청,2023-01-03
"부산광역시 중구 광복로49번길25 (로데오갤러리)",1,부산광역시 중구 광복로49번길25 (로데오갤러리),부산광역시 중구 신창동1가 23,35.10150217,129.0301121,2020,건축물,051-600-4696,부산광역시 중구청,2023-01-03
"부산광역시 중구 광복로49번길19-2 (만리장성)",1,부산광역시 중구 광복로49번길19-2 (만리장성),부산광역시 중구 신창동1가 17-1,35.10100931,129.0303224,2020,건축물,051-600-4696,부산광역시 중구청,2023-01-03
"부산광역시 중구 광복로49번길17",1,부산광역시 중구 광복로49번길17,부산광역시 중구 신창동1가 16,35.10074845,129.0303531,2020,건축물,051-600-4696,부산광역시 중구청,2023-01-03
"부산광역시 중구 광복로49번길11",1,부산광역시 중구 광복로49번길11,부산광역시 중구 신창동1가 9-2,35.10014241,129.0304281,2020,건축물,051-600-4696,부산광역시 중구청,2023-01-03
"부산광역시 중구 광복로49번길 37-3",1,부산광역시 중구 광복로49번길 37-3,부산광역시 중구 대청동2가 22-7,35.1026338,129.0301232,2020,건축물,051-600-4696,부산광역시 중구청,2023-01-03
"부산광역시 중구 광복로49번길 35-2",1,부산광역시 중구 광복로49번길 35-2,부산광역시 중구 대청동2가 22-17,35.10244794,129.0300941,2020,건축물,051-600-4696,부산광역시 중구청,2023-01-03
"부산광역시 중구 광복로49번길 3-1",1,부산광역시 중구 광복로49번길 3-1,부산광역시 중구 창선동1가 27-3,35.0995239,129.0304925,2020,건축물,051-600-4696,부산광역시 중구청,2023-01-03
"부산광역시 중구 광복로45 (국민은행광복동지점)",1,부산광역시 중구 광복로45 (국민은행광복동지점),부산광역시 중구 창선동1가 15,35.09946078,129.0299966,2020,건축물,051-600-4696,부산광역시 중구청,2023-01-03
"부산광역시 중구 광복로43번길4",1,부산광역시 중구 광복로43번길4,부산광역시 중구 창선동1가 13-2,35.09956478,129.0298502,2020,건축물,051-600-4696,부산광역시 중구청,2023-01-03
"부산광역시 중구 광복로43번길22 (참살이)",1,부산광역시 중구 광복로43번길22 (참살이),부산광역시 중구 신창동2가 15-1,35.10125108,129.0296617,2020,건축물,051-600-4696,부산광역시 중구청,2023-01-03
"부산광역시 중구 광복로43번길18-5 (바다집)",1,부산광역시 중구 광복로43번길18-5 (바다집),부산광역시 중구 신창동2가 17-13,35.10083223,129.0299189,2020,건축물,051-600-4696,부산광역시 중구청,2023-01-03
"부산광역시 중구 광복로43번길18-1",1,부산광역시 중구 광복로43번길18-1,부산광역시 중구 신창동2가 16-3,35.10092635,129.0296799,2020,건축물,051-600-4696,부산광역시 중구청,2023-01-03
"부산광역시 중구 광복로43번길18-1",1,부산광역시 중구 광복로43번길18-1,부산광역시 중구 신창동2가 16-3,35.10092635,129.029678,2020,건축물,051-600-4696,부산광역시 중구청,2023-01-03
"부산광역시 중구 광복로43번길16",1,부산광역시 중구 광복로43번길16,부산광역시 중구 신창동2가 17-20,35.1006699,129.0296916,2020,건축물,051-600-4696,부산광역시 중구청,2023-01-03
"부산광역시 중구 광복로43번길12 (녹수탕)",1,부산광역시 중구 광복로43번길12 (녹수탕),부산광역시 중구 신창동2가 21-2,35.10041949,129.0298359,2020,건축물,051-600-4696,부산광역시 중구청,2023-01-03
"부산광역시 중구 광복로43번길10 (큰집맞은편)",1,부산광역시 중구 광복로43번길10 (큰집맞은편),부산광역시 중구 창선동1가 11,35.10006298,129.0297902,2020,건축물,051-600-4696,부산광역시 중구청,2023-01-03
"부산광역시 중구 광복로43번길10",1,부산광역시 중구 광복로43번길10,부산광역시 중구 창선동1가 11,35.10006298,129.0297902,2020,건축물,051-600-4696,부산광역시 중구청,2023-01-03
"부산광역시 중구 광복로4-1 (노랑통닭)",1,부산광역시 중구 광복로4-1 (노랑통닭),부산광역시 중구 부평동2가 53-2,35.0994009,129.0255422,2020,건축물,051-600-4696,부산광역시 중구청,2023-01-03
"부산광역시 중구 광복로39번길7-3 (맞은편 와이즈파크신축공사현장)",1,부산광역시 중구 광복로39번길7-3 (맞은편 와이즈파크신축공사현장),부산광역시 중구 창선동2가 1-1,35.1000403,129.0293397,2020,건축물,051-600-4696,부산광역시 중구청,2023-01-03
"부산광역시 중구 광복로39번길7-3 (맞은편 와이즈파크 신축공사현장)",1,부산광역시 중구 광복로39번길7-3 (맞은편 와이즈파크 신축공사현장),부산광역시 중구 창선동2가 1-1,35.1000403,129.0293397,2020,건축물,051-600-4696,부산광역시 중구청,2023-01-03
"부산광역시 중구 광복로39번길38 (전자재활용센터)",1,부산광역시 중구 광복로39번길38 (전자재활용센터),부산광역시 중구 신창동2가 1-1,35.10263794,129.0292882,2020,건축물,051-600-4696,부산광역시 중구청,2023-01-03
"부산광역시 중구 광복로39번길35-1 (국제주차장맞은편)",1,부산광역시 중구 광복로39번길35-1 (국제주차장맞은편),부산광역시 중구 신창동3가 2-2,35.1024125,129.0290481,2020,건축물,051-600-4696,부산광역시 중구청,2023-01-03
"부산광역시 중구 광복로39번길31-1 (아리랑전자)",1,부산광역시 중구 광복로39번길31-1 (아리랑전자),부산광역시 중구 신창동2가 33-4,35.10207186,129.0290812,2020,건축물,051-600-4696,부산광역시 중구청,2023-01-03
"부산광역시 중구 광복로39번길29 (한국공예)",1,부산광역시 중구 광복로39번길29 (한국공예),부산광역시 중구 신창동3가 7-1,35.10184508,129.0290624,2020,건축물,051-600-4696,부산광역시 중구청,2023-01-03
"부산광역시 중구 광복로39번길19 (인터넷)",1,부산광역시 중구 광복로39번길19 (인터넷),부산광역시 중구 신창동2가 27-2,35.1009189,129.0292641,2020,건축물,051-600-4696,부산광역시 중구청,2023-01-03
"부산광역시 중구 광복로39번길16",1,부산광역시 중구 광복로39번길16,부산광역시 중구 신창동2가 18-16,35.1007706,129.0294212,2020,건축물,051-600-4696,부산광역시 중구청,2023-01-03
"부산광역시 중구 광복로39번길15 (BYC)",1,부산광역시 중구 광복로39번길15 (BYC),부산광역시 중구 신창동2가 26-7,35.10060551,129.0292493,2020,건축물,051-600-4696,부산광역시 중구청,2023-01-03
"부산광역시 중구 광복로39번길13-1",1,부산광역시 중구 광복로39번길13-1,부산광역시 중구 신창동2가 25-1,35.10048769,129.0292867,2020,건축물,051-600-4696,부산광역시 중구청,2023-01-03
"부산광역시 중구 광복로39번길 31",1,부산광역시 중구 광복로39번길 31,부산광역시 중구 신창동2가 32-1,35.1020112,129.0290727,2020,건축물,051-600-4696,부산광역시 중구청,2023-01-03
"부산광역시 중구 광복로37번길7-1",1,부산광역시 중구 광복로37번길7-1,부산광역시 중구 창선동2가 16-3,35.1000073,129.0290848,2020,건축물,051-600-4696,부산광역시 중구청,2023-01-03
"부산광역시 중구 광복로37번길6 (창선우체국 뒤편)",1,부산광역시 중구 광복로37번길6 (창선우체국 뒤편),부산광역시 중구 창선동2가 4,35.09978295,129.0292905,2020,건축물,051-600-4696,부산광역시 중구청,2023-01-03
"부산광역시 중구 광복로37번길6 (맞은편 와이즈파크신축공사현장)",1,부산광역시 중구 광복로37번길6 (맞은편 와이즈파크신축공사현장),부산광역시 중구 창선동2가 4,35.09978295,129.0292905,2020,건축물,051-600-4696,부산광역시 중구청,2023-01-03
"부산광역시 중구 광복로37번길5-1",1,부산광역시 중구 광복로37번길5-1,부산광역시 중구 창선동2가 14,35.0997975,129.0290515,2020,건축물,051-600-4696,부산광역시 중구청,2023-01-03
"부산광역시 중구 광복로37번길3-1",1,부산광역시 중구 광복로37번길3-1,부산광역시 중구 창선동2가 10-1,35.09956602,129.0291264,2020,건축물,051-600-4696,부산광역시 중구청,2023-01-03
"부산광역시 중구 광복로35번길7 (먹자골목)",1,부산광역시 중구 광복로35번길7 (먹자골목),부산광역시 중구 창선동2가 19-1,35.0998916,129.0287853,2020,건축물,051-600-4696,부산광역시 중구청,2023-01-03
"부산광역시 중구 광복로35번길35 (일신주차장)",1,부산광역시 중구 광복로35번길35 (일신주차장),부산광역시 중구 신창동3가 40,35.10254261,129.0286767,2020,건축물,051-600-4696,부산광역시 중구청,2023-01-03
"부산광역시 중구 광복로35번길3-3 (대도양행 먹자골목)",1,부산광역시 중구 광복로35번길3-3 (대도양행 먹자골목),부산광역시 중구 창선동2가 20-3,35.09967954,129.0287938,2020,건축물,051-600-4696,부산광역시 중구청,2023-01-03
"부산광역시 중구 광복로35번길29 (새로미안경)",1,부산광역시 중구 광복로35번길29 (새로미안경),부산광역시 중구 신창동3가 36,35.1019756,129.0286982,2020,건축물,051-600-4696,부산광역시 중구청,2023-01-03
"부산광역시 중구 광복로35번길27 (국제플라워)",1,부산광역시 중구 광복로35번길27 (국제플라워),부산광역시 중구 신창동3가 33-5,35.10178955,129.0287189,2020,건축물,051-600-4696,부산광역시 중구청,2023-01-03
"부산광역시 중구 광복로35번길25-1 (매직데코)",1,부산광역시 중구 광복로35번길25-1 (매직데코),부산광역시 중구 신창동3가 32-1,35.10155909,129.0287044,2020,건축물,051-600-4696,부산광역시 중구청,2023-01-03
"부산광역시 중구 광복로35번길23",1,부산광역시 중구 광복로35번길23,부산광역시 중구 신창동3가 31-1,35.10143224,129.0287451,2020,건축물,051-600-4696,부산광역시 중구청,2023-01-03
"부산광역시 중구 광복로35번길21 (가나식품)",1,부산광역시 중구 광복로35번길21 (가나식품),부산광역시 중구 신창동3가 30-1,35.10117325,129.0287124,2020,건축물,051-600-4696,부산광역시 중구청,2023-01-03
"부산광역시 중구 광복로35번길17 (미라노안경)",1,부산광역시 중구 광복로35번길17 (미라노안경),부산광역시 중구 신창동3가 27-1,35.1008629,129.0287457,2020,건축물,051-600-4696,부산광역시 중구청,2023-01-03
"부산광역시 중구 광복로35번길17 (도자기상설)",1,부산광역시 중구 광복로35번길17 (도자기상설),부산광역시 중구 신창동3가 27-1,35.1008629,129.0287457,2020,건축물,051-600-4696,부산광역시 중구청,2023-01-03
"부산광역시 중구 광복로35번길11",1,부산광역시 중구 광복로35번길11,부산광역시 중구 신창동3가 23-4,35.1002433,129.0287818,2020,건축물,051-600-4696,부산광역시 중구청,2023-01-03
"부산광역시 중구 광복로2-1 (불로만숯불바베큐 건물뒤)",1,부산광역시 중구 광복로2-1 (불로만숯불바베큐 건물뒤),부산광역시 중구 부평동2가 53-4,35.09926854,129.0253493,2020,건축물,051-600-4696,부산광역시 중구청,2023-01-03
"부산광역시 중구 광복로20-2(감나무집 쌈밥 골목안)",1,부산광역시 중구 광복로20-2(감나무집 쌈밥 골목안),부산광역시 중구 부평동1가 37-23,35.0993067,129.0272824,2020,건축물,051-600-4696,부산광역시 중구청,2023-01-03
"부산광역시 중구 광복로20-2 (신창의료기)",1,부산광역시 중구 광복로20-2 (신창의료기),부산광역시 중구 부평동1가 37-23,35.0993067,129.0272824,2020,건축물,051-600-4696,부산광역시 중구청,2023-01-03
"부산광역시 중구 광복로19-1 (부산은행 부평온누리지점 옆골목)",1,부산광역시 중구 광복로19-1 (부산은행 부평온누리지점 옆골목),부산광역시 중구 부평동1가 35-20,35.09964444,129.0272992,2020,건축물,051-600-4696,부산광역시 중구청,2023-01-03
"부산광역시 중구 광복로18번길8-2",1,부산광역시 중구 광복로18번길8-2,부산광역시 중구 부평동1가 42-56,35.0988603,129.0269882,2020,건축물,051-600-4696,부산광역시 중구청,2023-01-03
"부산광역시 중구 광복로18번길6-1",1,부산광역시 중구 광복로18번길6-1,부산광역시 중구 부평동1가 42-52,35.09898398,129.0270616,2020,건축물,051-600-4696,부산광역시 중구청,2023-01-03
"부산광역시 중구 광복로18번길5-1 (여송제옆건물)",1,부산광역시 중구 광복로18번길5-1 (여송제옆건물),부산광역시 중구 부평동1가 42-50,35.09906517,129.0271645,2020,건축물,051-600-4696,부산광역시 중구청,2023-01-03
"부산광역시 중구 광복로18번길3 (미진모텔)",1,부산광역시 중구 광복로18번길3 (미진모텔),부산광역시 중구 부평동1가 37-13,35.0992806,129.0270839,2020,건축물,051-600-4696,부산광역시 중구청,2023-01-03
"부산광역시 중구 광복로16번길15 (건물뒤)",1,부산광역시 중구 광복로16번길15 (건물뒤),부산광역시 중구 부평동1가 42-37,35.09876138,129.0267929,2020,건축물,051-600-4696,부산광역시 중구청,2023-01-03
"부산광역시 중구 광복로16번길15",1,부산광역시 중구 광복로16번길15,부산광역시 중구 부평동1가 42-37,35.09876138,129.0267929,2020,건축물,051-600-4696,부산광역시 중구청,2023-01-03
"부산광역시 중구 광복로16-1 (벽돌집)",1,부산광역시 중구 광복로16-1 (벽돌집),부산광역시 중구 부평동1가 39-1,35.09929826,129.0268062,2020,건축물,051-600-4696,부산광역시 중구청,2023-01-03
"부산광역시 중구 광복로12번길7-5 (새피아모텔)",1,부산광역시 중구 광복로12번길7-5 (새피아모텔),부산광역시 중구 부평동1가 41-7,35.0989678,129.0265513,2020,건축물,051-600-4696,부산광역시 중구청,2023-01-03
"부산광역시 중구 광복로12번길7(독도오징어,꽃새우 옆골목)",1,"부산광역시 중구 광복로12번길7(독도오징어,꽃새우 옆골목)",부산광역시 중구 부평동1가 41-30,35.09888666,129.0264144,2020,건축물,051-600-4696,부산광역시 중구청,2023-01-03
"부산광역시 중구 광복로12번길4-1 (국제아파트)",1,부산광역시 중구 광복로12번길4-1 (국제아파트),부산광역시 중구 부평동2가 35-1,35.09920461,129.0261547,2020,건축물,051-600-4696,부산광역시 중구청,2023-01-03
"부산광역시 중구 고가길84-9",1,부산광역시 중구 고가길84-9,부산광역시 중구 보수동1가 59-369,35.10571529,129.0271976,2020,건축물,051-600-4696,부산광역시 중구청,2023-01-03
"부산광역시 중구 고가길84-11 (맞은편 산복도로밑)",1,부산광역시 중구 고가길84-11 (맞은편 산복도로밑),부산광역시 중구 보수동1가 59-367,35.1057629,129.0272497,2020,건축물,051-600-4696,부산광역시 중구청,2023-01-03
"부산광역시 중구 고가길82-9",1,부산광역시 중구 고가길82-9,부산광역시 중구 보수동1가 59-378,35.10561315,129.0272696,2020,건축물,051-600-4696,부산광역시 중구청,2023-01-03
"부산광역시 중구 고가길82-13 (맞은편 산복도로밑)",1,부산광역시 중구 고가길82-13 (맞은편 산복도로밑),부산광역시 중구 보수동1가 59-374,35.10570927,129.0273422,2020,건축물,051-600-4696,부산광역시 중구청,2023-01-03
"부산광역시 중구 고가길7번길4",1,부산광역시 중구 고가길7번길4,부산광역시 중구 보수동1가 60-152,35.1046596,129.0265223,2020,건축물,051-600-4696,부산광역시 중구청,2023-01-03
"부산광역시 중구 고가길78-9",1,부산광역시 중구 고가길78-9,부산광역시 중구 보수동1가 59-391,35.10546895,129.0272704,2020,건축물,051-600-4696,부산광역시 중구청,2023-01-03
"부산광역시 중구 고가길78-19 (산복도로밑)",1,부산광역시 중구 고가길78-19 (산복도로밑),부산광역시 중구 보수동1가 59-384,35.1056548,129.0274622,2020,건축물,051-600-4696,부산광역시 중구청,2023-01-03
"부산광역시 중구 고가길78-17",1,부산광역시 중구 고가길78-17,부산광역시 중구 보수동1가 59-386,35.1056055,129.0274287,2020,건축물,051-600-4696,부산광역시 중구청,2023-01-03
"부산광역시 중구 고가길75-1 (에덴그린빌라G동 아래)",1,부산광역시 중구 고가길75-1 (에덴그린빌라G동 아래),부산광역시 중구 보수동1가 60-22,35.10518481,129.0272327,2020,건축물,051-600-4696,부산광역시 중구청,2023-01-03
"부산광역시 중구 고가길75 (건물옆 계단)",1,부산광역시 중구 고가길75 (건물옆 계단),부산광역시 중구 보수동1가 60-197,35.10512599,129.0273014,2020,건축물,051-600-4696,부산광역시 중구청,2023-01-03
"부산광역시 중구 고가길68번길5-1",1,부산광역시 중구 고가길68번길5-1,부산광역시 중구 대청동4가 75-2,35.1050792,129.0280484,2020,건축물,051-600-4696,부산광역시 중구청,2023-01-03
"부산광역시 중구 고가길68번길3-1",1,부산광역시 중구 고가길68번길3-1,부산광역시 중구 대청동4가 75-255,35.1050342,129.0278317,2020,건축물,051-600-4696,부산광역시 중구청,2023-01-03
"부산광역시 중구 고가길68(대청부성빌라)",1,부산광역시 중구 고가길68(대청부성빌라),부산광역시 중구 대청동4가 81-34,35.10486275,129.0276193,2020,건축물,051-600-4696,부산광역시 중구청,2023-01-03
"부산광역시 중구 고가길66-13 (태광빌리지 건물뒤)",1,부산광역시 중구 고가길66-13 (태광빌리지 건물뒤),부산광역시 중구 보수동1가 146-79,35.1044642,129.0274396,2020,건축물,051-600-4696,부산광역시 중구청,2023-01-03
"부산광역시 중구 고가길65-5",1,부산광역시 중구 고가길65-5,부산광역시 중구 보수동1가 60-85,35.10479574,129.0272187,2020,건축물,051-600-4696,부산광역시 중구청,2023-01-03
"부산광역시 중구 고가길64-1(태광골든빌라옆골목)",1,부산광역시 중구 고가길64-1(태광골든빌라옆골목),부산광역시 중구 보수동1가 146-48,35.10468222,129.0275405,2020,건축물,051-600-4696,부산광역시 중구청,2023-01-03
"부산광역시 중구 고가길64-1(남해슈퍼 맞은편 전주)",1,부산광역시 중구 고가길64-1(남해슈퍼 맞은편 전주),부산광역시 중구 보수동1가 146-48,35.10468222,129.0275405,2020,건축물,051-600-4696,부산광역시 중구청,2023-01-03
"부산광역시 중구 고가길63-1",1,부산광역시 중구 고가길63-1,부산광역시 중구 보수동1가 60-78,35.10482656,129.0273159,2020,건축물,051-600-4696,부산광역시 중구청,2023-01-03
"부산광역시 중구 고가길59 (삼일빌라 건물뒤)",1,부산광역시 중구 고가길59 (삼일빌라 건물뒤),부산광역시 중구 보수동1가 146-93,35.1046304,129.0271905,2020,건축물,051-600-4696,부산광역시 중구청,2023-01-03
"부산광역시 중구 고가길58 (태광빌리지)",1,부산광역시 중구 고가길58 (태광빌리지),부산광역시 중구 보수동1가 60-383,35.10451999,129.0273259,2020,건축물,051-600-4696,부산광역시 중구청,2023-01-03
"부산광역시 중구 고가길50 (투윈빌라트맞은편)",1,부산광역시 중구 고가길50 (투윈빌라트맞은편),부산광역시 중구 보수동1가 146-120,35.1042432,129.0273491,2020,건축물,051-600-4696,부산광역시 중구청,2023-01-03
"부산광역시 중구 고가길5(태성빌라2차앞)",1,부산광역시 중구 고가길5(태성빌라2차앞),부산광역시 중구 보수동1가 60-154,35.10469797,129.0263828,2020,건축물,051-600-4696,부산광역시 중구청,2023-01-03
"부산광역시 중구 고가길47-7",1,부산광역시 중구 고가길47-7,부산광역시 중구 보수동1가 60-68,35.10409384,129.0269425,2020,건축물,051-600-4696,부산광역시 중구청,2023-01-03
"부산광역시 중구 고가길47-11 (태광빌라B동)",1,부산광역시 중구 고가길47-11 (태광빌라B동),부산광역시 중구 보수동1가 60-71,35.10419502,129.0269275,2020,건축물,051-600-4696,부산광역시 중구청,2023-01-03
"부산광역시 중구 고가길46(보수맨션-한전주)",1,부산광역시 중구 고가길46(보수맨션-한전주),부산광역시 중구 보수동1가 146-16,35.10419314,129.0276862,2020,건축물,051-600-4696,부산광역시 중구청,2023-01-03
"부산광역시 중구 고가길46 (대암보수맨션건물뒤)",1,부산광역시 중구 고가길46 (대암보수맨션건물뒤),부산광역시 중구 보수동1가 146-16,35.10419314,129.0276862,2020,건축물,051-600-4696,부산광역시 중구청,2023-01-03
"부산광역시 중구 고가길43-16",1,부산광역시 중구 고가길43-16,부산광역시 중구 보수동1가 146-134,35.10405767,129.0271653,2020,건축물,051-600-4696,부산광역시 중구청,2023-01-03
"부산광역시 중구 고가길17-3",1,부산광역시 중구 고가길17-3,부산광역시 중구 보수동1가 116-45,35.1042587,129.0267843,2020,건축물,051-600-4696,부산광역시 중구청,2023-01-03
"부산광역시 중구 고가길17-11 (경원하이츠B동 앞)",1,부산광역시 중구 고가길17-11 (경원하이츠B동 앞),부산광역시 중구 보수동1가 60-123,35.10442547,129.0267266,2020,건축물,051-600-4696,부산광역시 중구청,2023-01-03
"부산광역시 중구 망양로350번길18-19",1,부산광역시 중구 망양로350번길18-19,부산광역시 중구 대청동4가 21-75,35.1078196,129.0310936,2020,건축물,051-600-4696,부산광역시 중구청,2023-01-03
"부산광역시 중구 망양로350번길14-9",1,부산광역시 중구 망양로350번길14-9,부산광역시 중구 대청동4가 21-17,35.1078589,129.0312545,2020,건축물,051-600-4696,부산광역시 중구청,2023-01-03
"부산광역시 중구 망양로349-3",1,부산광역시 중구 망양로349-3,부산광역시 중구 대청동4가 5-7,35.10820388,129.0309922,2020,건축물,051-600-4696,부산광역시 중구청,2023-01-03
"부산광역시 중구 망양로345-13",1,부산광역시 중구 망양로345-13,부산광역시 중구 대청동4가 2-180,35.10824322,129.0305808,2020,건축물,051-600-4696,부산광역시 중구청,2023-01-03
"부산광역시 중구 망양로344번길7",1,부산광역시 중구 망양로344번길7,부산광역시 중구 대청동4가 65-24,35.10756611,129.0309764,2020,건축물,051-600-4696,부산광역시 중구청,2023-01-03
"부산광역시 중구 망양로344번길3-3",1,부산광역시 중구 망양로344번길3-3,부산광역시 중구 대청동4가 65-18,35.10782135,129.0308029,2020,건축물,051-600-4696,부산광역시 중구청,2023-01-03
"부산광역시 중구 망양로344번길2",1,부산광역시 중구 망양로344번길2,부산광역시 중구 대청동4가 65-124,35.1077558,129.0305381,2020,건축물,051-600-4696,부산광역시 중구청,2023-01-03
"부산광역시 중구 망양로344번길1-2 (산복도로)",1,부산광역시 중구 망양로344번길1-2 (산복도로),부산광역시 중구 대청동4가 65-15,35.1078382,129.0307244,2020,건축물,051-600-4696,부산광역시 중구청,2023-01-03
"부산광역시 중구 망양로343 (아성주택건물뒤)",1,부산광역시 중구 망양로343 (아성주택건물뒤),부산광역시 중구 대청동4가 3,35.1080388,129.0306633,2020,건축물,051-600-4696,부산광역시 중구청,2023-01-03
"부산광역시 중구 망양로342번길7-8",1,부산광역시 중구 망양로342번길7-8,부산광역시 중구 대청동4가 64-28,35.1075187,129.0307752,2020,건축물,051-600-4696,부산광역시 중구청,2023-01-03
"부산광역시 중구 망양로342번길6-4",1,부산광역시 중구 망양로342번길6-4,부산광역시 중구 대청동4가 65-43,35.10763766,129.0303908,2020,건축물,051-600-4696,부산광역시 중구청,2023-01-03
"부산광역시 중구 망양로342번길6",1,부산광역시 중구 망양로342번길6,부산광역시 중구 대청동4가 65-46,35.1075966,129.0304961,2020,건축물,051-600-4696,부산광역시 중구청,2023-01-03
"부산광역시 중구 망양로342번길5",1,부산광역시 중구 망양로342번길5,부산광역시 중구 대청동4가 65-51,35.10760228,129.0306518,2020,건축물,051-600-4696,부산광역시 중구청,2023-01-03
"부산광역시 중구 망양로342번길2 (산복도로)",1,부산광역시 중구 망양로342번길2 (산복도로),부산광역시 중구 대청동4가 65-112,35.1077026,129.0304496,2020,건축물,051-600-4696,부산광역시 중구청,2023-01-03
"부산광역시 중구 망양로342번길10-1 (대성빌라)",1,부산광역시 중구 망양로342번길10-1 (대성빌라),부산광역시 중구 대청동4가 65-58,35.1073831,129.0305914,2020,건축물,051-600-4696,부산광역시 중구청,2023-01-03
"부산광역시 중구 망양로341번길5-1",1,부산광역시 중구 망양로341번길5-1,부산광역시 중구 대청동4가 1-68,35.10815612,129.0300345,2020,건축물,051-600-4696,부산광역시 중구청,2023-01-03
"부산광역시 중구 망양로341번길4-1",1,부산광역시 중구 망양로341번길4-1,부산광역시 중구 대청동4가 2-227,35.10810335,129.0303217,2020,건축물,051-600-4696,부산광역시 중구청,2023-01-03
"부산광역시 중구 망양로341번길3-2",1,부산광역시 중구 망양로341번길3-2,부산광역시 중구 대청동4가 2-225,35.1080097,129.0301627,2020,건축물,051-600-4696,부산광역시 중구청,2023-01-03
"부산광역시 중구 망양로341번길3-1",1,부산광역시 중구 망양로341번길3-1,부산광역시 중구 대청동4가 2-82,35.10795768,129.0301965,2020,건축물,051-600-4696,부산광역시 중구청,2023-01-03
"부산광역시 중구 망양로341",1,부산광역시 중구 망양로341,부산광역시 중구 대청동4가 2-155,35.10793944,129.0304242,2020,건축물,051-600-4696,부산광역시 중구청,2023-01-03
"부산광역시 중구 망양로339(대청슈퍼)",1,부산광역시 중구 망양로339(대청슈퍼),부산광역시 중구 대청동4가 2-61,35.1078498,129.0302929,2020,건축물,051-600-4696,부산광역시 중구청,2023-01-03
"부산광역시 중구 망양로337번길5-2",1,부산광역시 중구 망양로337번길5-2,부산광역시 중구 대청동4가 1-79,35.1080755,129.0297391,2020,건축물,051-600-4696,부산광역시 중구청,2023-01-03
"부산광역시 중구 망양로371-7",1,부산광역시 중구 망양로371-7,부산광역시 중구 영주동 239-24,35.10972618,129.0300649,2020,건축물,051-600-4696,부산광역시 중구청,2023-01-03
"부산광역시 중구 망양로371(전주)",1,부산광역시 중구 망양로371(전주),부산광역시 중구 영주동 772-58,35.10983818,129.0302651,2020,건축물,051-600-4696,부산광역시 중구청,2023-01-03
"부산광역시 중구 망양로369번길7",1,부산광역시 중구 망양로369번길7,부산광역시 중구 영주동 239-34,35.10933887,129.0299457,2020,건축물,051-600-4696,부산광역시 중구청,2023-01-03
"부산광역시 중구 망양로369번길4",1,부산광역시 중구 망양로369번길4,부산광역시 중구 영주동 239-29,35.10966618,129.0302038,2020,건축물,051-600-4696,부산광역시 중구청,2023-01-03
"부산광역시 중구 망양로369번길3-1",1,부산광역시 중구 망양로369번길3-1,부산광역시 중구 영주동 239-38,35.1095088,129.0302584,2020,건축물,051-600-4696,부산광역시 중구청,2023-01-03
"부산광역시 중구 망양로369번길1",1,부산광역시 중구 망양로369번길1,부산광역시 중구 영주동 239-41,35.1096063,129.0304549,2020,건축물,051-600-4696,부산광역시 중구청,2023-01-03
"부산광역시 중구 망양로368 (버스정류장앞)",1,부산광역시 중구 망양로363번길3-2,부산광역시 중구 영주동 239-70,35.10908091,129.0305777,2020,건축물,051-600-4696,부산광역시 중구청,2023-01-03
"부산광역시 중구 망양로366",1,부산광역시 중구 망양로366,부산광역시 중구 영주동 293-7,35.10948805,129.0308686,2020,건축물,051-600-4696,부산광역시 중구청,2023-01-03
"부산광역시 중구 망양로365번길7",1,부산광역시 중구 망양로365번길7,부산광역시 중구 영주동 239-50,35.10913423,129.0301117,2020,건축물,051-600-4696,부산광역시 중구청,2023-01-03
"부산광역시 중구 망양로365번길4-2",1,부산광역시 중구 망양로365번길4-2,부산광역시 중구 영주동 239-45,35.1094091,129.0303328,2020,건축물,051-600-4696,부산광역시 중구청,2023-01-03
"부산광역시 중구 망양로365번길4-1",1,부산광역시 중구 망양로365번길4-1,부산광역시 중구 영주동 239-44,35.10944337,129.0303781,2020,건축물,051-600-4696,부산광역시 중구청,2023-01-03
"부산광역시 중구 망양로365번길2",1,부산광역시 중구 망양로365번길2,부산광역시 중구 영주동 239-42,35.10951684,129.0305116,2020,건축물,051-600-4696,부산광역시 중구청,2023-01-03
"부산광역시 중구 망양로363번길7-1",1,부산광역시 중구 망양로363번길7-1,부산광역시 중구 영주동 239-66,35.10892565,129.0302906,2020,건축물,051-600-4696,부산광역시 중구청,2023-01-03
"부산광역시 중구 망양로363번길4-1",1,부산광역시 중구 망양로363번길4-1,부산광역시 중구 영주동 239-60,35.1092386,129.0305442,2020,건축물,051-600-4696,부산광역시 중구청,2023-01-03
"부산광역시 중구 망양로363번길3-2",1,부산광역시 중구 망양로363번길3-2,부산광역시 중구 영주동 239-70,35.10907953,129.0305797,2020,건축물,051-600-4696,부산광역시 중구청,2023-01-03
"부산광역시 중구 망양로363번길2",1,부산광역시 중구 망양로363번길2,부산광역시 중구 영주동 239-58,35.1093141,129.0306914,2020,건축물,051-600-4696,부산광역시 중구청,2023-01-03
"부산광역시 중구 망양로361번길8-1",1,부산광역시 중구 망양로361번길8-1,부산광역시 중구 영주동 239-20,35.1088375,129.0303421,2020,건축물,051-600-4696,부산광역시 중구청,2023-01-03
"부산광역시 중구 망양로361번길4",1,부산광역시 중구 망양로361번길4,부산광역시 중구 영주동 239-74,35.1090616,129.0307837,2020,건축물,051-600-4696,부산광역시 중구청,2023-01-03
"부산광역시 중구 망양로361번길3-2",1,부산광역시 중구 망양로361번길3-2,부산광역시 중구 영주동 239-88,35.10887128,129.0307456,2020,건축물,051-600-4696,부산광역시 중구청,2023-01-03
"부산광역시 중구 망양로361번길2",1,부산광역시 중구 망양로361번길2,부산광역시 중구 영주동 386-43,35.10909299,129.0308507,2020,건축물,051-600-4696,부산광역시 중구청,2023-01-03
"부산광역시 중구 망양로361번길1",1,부산광역시 중구 망양로361번길1,부산광역시 중구 영주동 382-7,35.10897246,129.0309455,2020,건축물,051-600-4696,부산광역시 중구청,2023-01-03
"부산광역시 중구 망양로358번길5 (부산디지털고등학교옆 계단길)",1,부산광역시 중구 망양로358번길5 (부산디지털고등학교옆 계단길),부산광역시 중구 영주동 293-2,35.1092431,129.0314921,2020,건축물,051-600-4696,부산광역시 중구청,2023-01-03
"부산광역시 중구 망양로358번길1 (덕원슈퍼건물뒤)",1,부산광역시 중구 망양로358번길1 (덕원슈퍼건물뒤),부산광역시 중구 영주동 293-17,35.1090499,129.0312669,2020,건축물,051-600-4696,부산광역시 중구청,2023-01-03
"부산광역시 중구 망양로357-5",1,부산광역시 중구 망양로357-5,부산광역시 중구 영주동 382-14,35.1087515,129.0311231,2020,건축물,051-600-4696,부산광역시 중구청,2023-01-03
"부산광역시 중구 망양로357-14",1,부산광역시 중구 망양로357-14,부산광역시 중구 영주동 239-91,35.10878017,129.0308047,2020,건축물,051-600-4696,부산광역시 중구청,2023-01-03
"부산광역시 중구 망양로357-12",1,부산광역시 중구 망양로357-12,부산광역시 중구 영주동 382-10,35.10881954,129.0308751,2020,건축물,051-600-4696,부산광역시 중구청,2023-01-03
"부산광역시 중구 망양로356 (부산디지털고등학교옆 계단길)",1,부산광역시 중구 망양로356 (부산디지털고등학교옆 계단길),부산광역시 중구 영주동 446-2,35.10885429,129.0324467,2020,건축물,051-600-4696,부산광역시 중구청,2023-01-03
"부산광역시 중구 망양로356 (덕원중학교창고)",1,부산광역시 중구 망양로356 (덕원중학교창고),부산광역시 중구 영주동 446-2,35.10885429,129.0324467,2020,건축물,051-600-4696,부산광역시 중구청,2023-01-03
"부산광역시 중구 망양로355번길8",1,부산광역시 중구 망양로355번길8,부산광역시 중구 대청동4가 2-2,35.10837573,129.0306324,2020,건축물,051-600-4696,부산광역시 중구청,2023-01-03
"부산광역시 중구 망양로355번길6-9",1,부산광역시 중구 망양로355번길6-9,부산광역시 중구 영주동 377-53,35.10853941,129.0303294,2020,건축물,051-600-4696,부산광역시 중구청,2023-01-03
"부산광역시 중구 망양로355번길6-3",1,부산광역시 중구 망양로355번길6-3,부산광역시 중구 대청동4가 2-187,35.1084396,129.0305959,2020,건축물,051-600-4696,부산광역시 중구청,2023-01-03
"부산광역시 중구 망양로355번길6",1,부산광역시 중구 망양로355번길6,부산광역시 중구 영주동 377-7,35.10849875,129.0308197,2020,건축물,051-600-4696,부산광역시 중구청,2023-01-03
"부산광역시 중구 망양로355번길32-1",1,부산광역시 중구 망양로355번길32-1,부산광역시 중구 대청동4가 75-302,35.1067622,129.0289752,2020,건축물,051-600-4696,부산광역시 중구청,2023-01-03
"부산광역시 중구 망양로355번길30",1,부산광역시 중구 망양로355번길30,부산광역시 중구 대청동4가 72-234,35.10698089,129.0291151,2020,건축물,051-600-4696,부산광역시 중구청,2023-01-03
"부산광역시 중구 망양로435 (시민아파트4호동)",1,부산광역시 중구 망양로435 (시민아파트4호동),부산광역시 중구 영주동 산 1-200,35.11497317,129.0301512,2020,건축물,051-600-4696,부산광역시 중구청,2023-01-03
"부산광역시 중구 망양로435 (시민아파트4호동 노인회관)",1,부산광역시 중구 망양로435 (시민아파트4호동 노인회관),부산광역시 중구 영주동 산 1-200,35.11497317,129.0301512,2020,건축물,051-600-4696,부산광역시 중구청,2023-01-03
"부산광역시 중구 망양로336번길3-4",1,부산광역시 중구 망양로336번길3-4,부산광역시 중구 대청동4가 65-69,35.10730808,129.0304568,2020,건축물,051-600-4696,부산광역시 중구청,2023-01-03
"부산광역시 중구 망양로336번길3-12",1,부산광역시 중구 망양로336번길3-12,부산광역시 중구 대청동4가 65-59,35.10742206,129.0305385,2020,건축물,051-600-4696,부산광역시 중구청,2023-01-03
"부산광역시 중구 망양로335번길7",1,부산광역시 중구 망양로335번길7,부산광역시 중구 대청동4가 1-86,35.1079231,129.0294782,2020,건축물,051-600-4696,부산광역시 중구청,2023-01-03
"부산광역시 중구 망양로335번길4-2 (스카이웨이주차장옆)",1,부산광역시 중구 망양로335번길4-2 (스카이웨이주차장옆),부산광역시 중구 대청동4가 2-281,35.10782435,129.0297633,2020,건축물,051-600-4696,부산광역시 중구청,2023-01-03
"부산광역시 중구 망양로335번길4-1 (스카이웨이주차장옆)",1,부산광역시 중구 망양로335번길4-1 (스카이웨이주차장옆),부산광역시 중구 대청동4가 2-89,35.1077781,129.0298417,2020,건축물,051-600-4696,부산광역시 중구청,2023-01-03
"부산광역시 중구 망양로335번길2 (스카이웨이주차장옆)",1,부산광역시 중구 망양로335번길2 (스카이웨이주차장옆),부산광역시 중구 대청동4가 2-133,35.10766361,129.0298909,2020,건축물,051-600-4696,부산광역시 중구청,2023-01-03
"부산광역시 중구 망양로333(대청공용주차장옥상)",1,부산광역시 중구 망양로333(대청공용주차장옥상),부산광역시 중구 대청동4가 2-119,35.10752356,129.0296144,2020,건축물,051-600-4696,부산광역시 중구청,2023-01-03
"부산광역시 중구 망양로332번길8 (재원주택)",1,부산광역시 중구 망양로332번길8 (재원주택),부산광역시 중구 대청동4가 66-2,35.10695642,129.0299304,2020,건축물,051-600-4696,부산광역시 중구청,2023-01-03
"부산광역시 중구 망양로332번길10-3",1,부산광역시 중구 망양로332번길10-3,부산광역시 중구 대청동4가 66-32,35.10678374,129.0299369,2020,건축물,051-600-4696,부산광역시 중구청,2023-01-03
"부산광역시 중구 망양로331번길5",1,부산광역시 중구 망양로331번길5,부산광역시 중구 대청동4가 72-57,35.10737716,129.0292158,2020,건축물,051-600-4696,부산광역시 중구청,2023-01-03
"부산광역시 중구 망양로331번길3-1",1,부산광역시 중구 망양로331번길3-1,부산광역시 중구 대청동4가 72-215,35.10730952,129.0292944,2020,건축물,051-600-4696,부산광역시 중구청,2023-01-03
"부산광역시 중구 망양로331번길1-1 (스카이웨이주차장옆)",1,부산광역시 중구 망양로331번길1-1 (스카이웨이주차장옆),부산광역시 중구 대청동4가 72-41,35.1072465,129.0294769,2020,건축물,051-600-4696,부산광역시 중구청,2023-01-03
"부산광역시 중구 망양로329번길5",1,부산광역시 중구 망양로329번길5,부산광역시 중구 대청동4가 72-221,35.10711068,129.0290816,2020,건축물,051-600-4696,부산광역시 중구청,2023-01-03
"부산광역시 중구 망양로329번길4-1",1,부산광역시 중구 망양로329번길4-1,부산광역시 중구 대청동4가 72-49,35.1072161,129.0292566,2020,건축물,051-600-4696,부산광역시 중구청,2023-01-03
"부산광역시 중구 망양로329번길3",1,부산광역시 중구 망양로329번길3,부산광역시 중구 대청동4가 72-44,35.1070187,129.0293515,2020,건축물,051-600-4696,부산광역시 중구청,2023-01-03
"부산광역시 중구 망양로327",1,부산광역시 중구 망양로327,부산광역시 중구 대청동4가 72-288,35.10688986,129.0293848,2020,건축물,051-600-4696,부산광역시 중구청,2023-01-03
"부산광역시 중구 망양로325번길4",1,부산광역시 중구 망양로325번길4,부산광역시 중구 대청동4가 72-46,35.10692376,129.0292978,2020,건축물,051-600-4696,부산광역시 중구청,2023-01-03
"부산광역시 중구 망양로323-6",1,부산광역시 중구 망양로323-6,부산광역시 중구 대청동4가 72-66,35.10669613,129.0291878,2020,건축물,051-600-4696,부산광역시 중구청,2023-01-03
"부산광역시 중구 망양로322번안길6-3",1,부산광역시 중구 망양로322번안길6-3,부산광역시 중구 대청동4가 66-7,35.10682545,129.0297868,2020,건축물,051-600-4696,부산광역시 중구청,2023-01-03
"부산광역시 중구 망양로322번안길5 (맞은편산복도로밑)",1,부산광역시 중구 망양로322번안길5 (맞은편산복도로밑),부산광역시 중구 대청동4가 72-194,35.1067662,129.0295746,2020,건축물,051-600-4696,부산광역시 중구청,2023-01-03
"부산광역시 중구 망양로322번안길3",1,부산광역시 중구 망양로322번안길3,부산광역시 중구 대청동4가 72-208,35.10664514,129.0295762,2020,건축물,051-600-4696,부산광역시 중구청,2023-01-03
"부산광역시 중구 망양로322번안길2",1,부산광역시 중구 망양로322번안길2,부산광역시 중구 대청동4가 71-1,35.10645079,129.0295582,2020,건축물,051-600-4696,부산광역시 중구청,2023-01-03
"부산광역시 중구 망양로322번안길 6-1",1,부산광역시 중구 망양로322번안길 6-1,부산광역시 중구 대청동4가 66-6,35.10686296,129.029698,2020,건축물,051-600-4696,부산광역시 중구청,2023-01-03
"부산광역시 중구 망양로322번길4",1,부산광역시 중구 망양로322번길4,부산광역시 중구 대청동4가 72-174,35.1062857,129.0294668,2020,건축물,051-600-4696,부산광역시 중구청,2023-01-03
"부산광역시 중구 망양로322번길2-6",1,부산광역시 중구 망양로322번길2-6,부산광역시 중구 대청동4가 75-23,35.10620075,129.0292601,2020,건축물,051-600-4696,부산광역시 중구청,2023-01-03
"부산광역시 중구 망양로322번길2-4",1,부산광역시 중구 망양로322번길2-4,부산광역시 중구 대청동4가 72-158,35.10629246,129.0293262,2020,건축물,051-600-4696,부산광역시 중구청,2023-01-03
"부산광역시 중구 망양로319번길65 (혜광분식)",1,부산광역시 중구 망양로319번길65 (혜광분식),부산광역시 중구 보수동1가 2-694,35.10983612,129.0253531,2020,건축물,051-600-4696,부산광역시 중구청,2023-01-03
"부산광역시 중구 망양로319번길24 (보수아파트3동 맞은편아래담)",1,부산광역시 중구 망양로319번길24 (보수아파트3동 맞은편아래담),부산광역시 중구 보수동1가 산 3-148,35.10630049,129.0273274,2020,건축물,051-600-4696,부산광역시 중구청,2023-01-03
"부산광역시 중구 망양로319번길 24(보수아파트 1호동 옆)",1,부산광역시 중구 망양로319번길 24(보수아파트 1호동 옆),부산광역시 중구 보수동1가 산 3-148,35.10638287,129.0273274,2020,건축물,051-600-4696,부산광역시 중구청,2023-01-03
"부산광역시 중구 망양로355번길3",1,부산광역시 중구 망양로355번길3,부산광역시 중구 영주동 239-102,35.1084868,129.0310869,2020,건축물,051-600-4696,부산광역시 중구청,2023-01-03
"부산광역시 중구 망양로355번길22(금수현의음악쌀롱 옥상)",1,부산광역시 중구 망양로355번길22(금수현의음악쌀롱 옥상),부산광역시 중구 대청동4가 2-384,35.10764977,129.0294256,2020,건축물,051-600-4696,부산광역시 중구청,2023-01-03
"부산광역시 중구 망양로355번길22 (스카이웨이주차장뒤)",1,부산광역시 중구 망양로355번길22 (스카이웨이주차장뒤),부산광역시 중구 대청동4가 2-384,35.10764977,129.0294256,2020,건축물,051-600-4696,부산광역시 중구청,2023-01-03
"부산광역시 중구 망양로314번길4 (보경빌라)",1,부산광역시 중구 망양로314번길4 (보경빌라),부산광역시 중구 대청동4가 75-110,35.10556387,129.0287072,2020,건축물,051-600-4696,부산광역시 중구청,2023-01-03
"부산광역시 중구 망양로314번길3-5",1,부산광역시 중구 망양로314번길3-5,부산광역시 중구 대청동4가 75-56,35.1057107,129.0290556,2020,건축물,051-600-4696,부산광역시 중구청,2023-01-03
"부산광역시 중구 망양로314번길2-6",1,부산광역시 중구 망양로314번길2-6,부산광역시 중구 대청동4가 75-99,35.10560576,129.0284843,2020,건축물,051-600-4696,부산광역시 중구청,2023-01-03
"부산광역시 중구 망양로314번길1-9 (삼보주택)",1,부산광역시 중구 망양로314번길1-9 (삼보주택),부산광역시 중구 대청동4가 75-44,35.1057728,129.0289532,2020,건축물,051-600-4696,부산광역시 중구청,2023-01-03
"부산광역시 중구 망양로314번길1-11",1,부산광역시 중구 망양로314번길1-11,부산광역시 중구 대청동4가 75-39,35.1058183,129.0290117,2020,건축물,051-600-4696,부산광역시 중구청,2023-01-03
"부산광역시 중구 망양로313 (대청파크빌라A동)",1,부산광역시 중구 망양로313 (대청파크빌라A동),부산광역시 중구 대청동4가 75-21,35.10593028,129.0285671,2020,건축물,051-600-4696,부산광역시 중구청,2023-01-03
"부산광역시 중구 망양로307번길3-2",1,부산광역시 중구 망양로307번길3-2,부산광역시 중구 보수동1가 59-315,35.10575702,129.0279355,2020,건축물,051-600-4696,부산광역시 중구청,2023-01-03
"부산광역시 중구 망양로306-5 (옆골목 산복도로밑)",1,부산광역시 중구 망양로306-5 (옆골목 산복도로밑),부산광역시 중구 대청동4가 75-531,35.10554179,129.0283031,2020,건축물,051-600-4696,부산광역시 중구청,2023-01-03
"부산광역시 중구 망양로306-5",1,부산광역시 중구 망양로306-5,부산광역시 중구 대청동4가 75-531,35.10554179,129.0283031,2020,건축물,051-600-4696,부산광역시 중구청,2023-01-03
"부산광역시 중구 망양로306-2",1,부산광역시 중구 망양로306-2,부산광역시 중구 대청동4가 75-534,35.10542554,129.0279317,2020,건축물,051-600-4696,부산광역시 중구청,2023-01-03
"부산광역시 중구 망양로304번길6-6",1,부산광역시 중구 망양로304번길6-6,부산광역시 중구 보수동1가 59-409,35.10544205,129.0275856,2020,건축물,051-600-4696,부산광역시 중구청,2023-01-03
"부산광역시 중구 망양로304번길6-1 (오행철학원)",1,부산광역시 중구 망양로304번길6-1 (오행철학원),부산광역시 중구 보수동1가 59-420,35.10533992,129.0276576,2020,건축물,051-600-4696,부산광역시 중구청,2023-01-03
"부산광역시 중구 망양로304번길5-4",1,부산광역시 중구 망양로304번길5-4,부산광역시 중구 대청동4가 75-208,35.1053142,129.0278627,2020,건축물,051-600-4696,부산광역시 중구청,2023-01-03
"부산광역시 중구 망양로304번길1 (산복도로)",1,부산광역시 중구 망양로304번길1 (산복도로),부산광역시 중구 대청동4가 75-187,35.10547332,129.0278715,2020,건축물,051-600-4696,부산광역시 중구청,2023-01-03
"부산광역시 중구 망양로302-10",1,부산광역시 중구 망양로302-10,부산광역시 중구 보수동1가 59-398,35.1054958,129.0274964,2020,건축물,051-600-4696,부산광역시 중구청,2023-01-03
"부산광역시 중구 망양로301번길9-6",1,부산광역시 중구 망양로301번길9-6,부산광역시 중구 보수동1가 59-311,35.10613133,129.0276352,2020,건축물,051-600-4696,부산광역시 중구청,2023-01-03
"부산광역시 중구 망양로301번길7-2",1,부산광역시 중구 망양로301번길7-2,부산광역시 중구 보수동1가 59-312,35.10600982,129.0276918,2020,건축물,051-600-4696,부산광역시 중구청,2023-01-03
"부산광역시 중구 망양로301번길6-3",1,부산광역시 중구 망양로301번길6-3,부산광역시 중구 보수동1가 59-314,35.10590092,129.0277373,2020,건축물,051-600-4696,부산광역시 중구청,2023-01-03
"부산광역시 중구 망양로301번길5-8 (건물뒤)",1,부산광역시 중구 망양로301번길5-8 (건물뒤),부산광역시 중구 보수동1가 59-313,35.10606687,129.0275133,2020,건축물,051-600-4696,부산광역시 중구청,2023-01-03
"부산광역시 중구 망양로301번길5-8",1,부산광역시 중구 망양로301번길5-8,부산광역시 중구 보수동1가 59-313,35.10606687,129.0275133,2020,건축물,051-600-4696,부산광역시 중구청,2023-01-03
"부산광역시 중구 망양로301번길5",1,부산광역시 중구 망양로301번길5,부산광역시 중구 보수동1가 59-440,35.1059221,129.0275979,2020,건축물,051-600-4696,부산광역시 중구청,2023-01-03
"부산광역시 중구 망양로301번길3-6",1,부산광역시 중구 망양로301번길3-6,부산광역시 중구 보수동1가 59-435,35.1060225,129.0274613,2020,건축물,051-600-4696,부산광역시 중구청,2023-01-03
"부산광역시 중구 망양로301번길10-1 (옆 정자)LED15W",1,부산광역시 중구 망양로301번길10-1 (옆 정자)LED15W,부산광역시 중구 보수동1가 59-314,35.10598225,129.0278315,2020,건축물,051-600-4696,부산광역시 중구청,2023-01-03
"부산광역시 중구 망양로301번길10-1",1,부산광역시 중구 망양로301번길10-1,부산광역시 중구 보수동1가 59-314,35.10598225,129.0278315,2020,건축물,051-600-4696,부산광역시 중구청,2023-01-03
"부산광역시 중구 망양로298번길5-1 (건물뒤 산복교 다리기둥)",1,부산광역시 중구 망양로298번길5-1 (건물뒤 산복교 다리기둥),부산광역시 중구 보수동1가 59-357,35.10558601,129.0269531,2020,건축물,051-600-4696,부산광역시 중구청,2023-01-03
"부산광역시 중구 망양로298번길5-1",1,부산광역시 중구 망양로298번길5-1,부산광역시 중구 보수동1가 59-357,35.10558601,129.0269531,2020,건축물,051-600-4696,부산광역시 중구청,2023-01-03
"부산광역시 중구 망양로298번길4 (건물뒤)",1,부산광역시 중구 망양로298번길4 (건물뒤),부산광역시 중구 보수동1가 41-560,35.10565189,129.0268934,2020,건축물,051-600-4696,부산광역시 중구청,2023-01-03
"부산광역시 중구 망양로298번길2-2",1,부산광역시 중구 망양로298번길2-2,부산광역시 중구 보수동1가 41-519,35.10575815,129.0270056,2020,건축물,051-600-4696,부산광역시 중구청,2023-01-03
"부산광역시 중구 망양로298번길2-10",1,부산광역시 중구 망양로298번길2-10,부산광역시 중구 보수동1가 41-511,35.1058557,129.0269203,2020,건축물,051-600-4696,부산광역시 중구청,2023-01-03
"부산광역시 중구 망양로298번길1 (맞은편산복도로밑)",1,부산광역시 중구 망양로298번길1 (맞은편산복도로밑),부산광역시 중구 보수동1가 59-366,35.1057895,129.0271974,2020,건축물,051-600-4696,부산광역시 중구청,2023-01-03
"부산광역시 중구 망양로337번길4",1,부산광역시 중구 망양로337번길4,부산광역시 중구 대청동4가 2-79,35.10794458,129.0300852,2020,건축물,051-600-4696,부산광역시 중구청,2023-01-03
"부산광역시 중구 망양로337번길3-2",1,부산광역시 중구 망양로337번길3-2,부산광역시 중구 대청동4가 2-256,35.10788708,129.0298921,2020,건축물,051-600-4696,부산광역시 중구청,2023-01-03
"부산광역시 중구 망양로336번길4 (대청카정비옆)",1,부산광역시 중구 망양로336번길4 (대청카정비옆),부산광역시 중구 대청동4가 65-76,35.10740521,129.0300381,2020,건축물,051-600-4696,부산광역시 중구청,2023-01-03
"부산광역시 중구 망양로336번길4 (대청카정비)",1,부산광역시 중구 망양로336번길4 (대청카정비),부산광역시 중구 대청동4가 65-76,35.10740521,129.0300381,2020,건축물,051-600-4696,부산광역시 중구청,2023-01-03
"부산광역시 중구 망양로295번길3-8",1,부산광역시 중구 망양로295번길3-8,부산광역시 중구 보수동1가 41-498,35.1061641,129.0270353,2020,건축물,051-600-4696,부산광역시 중구청,2023-01-03
"부산광역시 중구 망양로295번길 1-8",1,부산광역시 중구 망양로295번길 1-8,부산광역시 중구 보수동1가 41-500,35.1061045,129.0270423,2020,건축물,051-600-4696,부산광역시 중구청,2023-01-03
"부산광역시 중구 망양로294 (산복도로)",1,부산광역시 중구 망양로294 (산복도로),부산광역시 중구 보수동1가 41-482,35.1059919,129.0267968,2020,건축물,051-600-4696,부산광역시 중구청,2023-01-03
"부산광역시 중구 망양로291번길5",1,부산광역시 중구 망양로291번길5,부산광역시 중구 보수동1가 41-409,35.10636877,129.0267049,2020,건축물,051-600-4696,부산광역시 중구청,2023-01-03
"부산광역시 중구 망양로291번길2-7 (건물뒤)",1,부산광역시 중구 망양로291번길2-7 (건물뒤),부산광역시 중구 보수동1가 41-496,35.10621064,129.0268107,2020,건축물,051-600-4696,부산광역시 중구청,2023-01-03
"부산광역시 중구 망양로289-8",1,부산광역시 중구 망양로289-8,부산광역시 중구 보수동1가 41-954,35.10641296,129.0266483,2020,건축물,051-600-4696,부산광역시 중구청,2023-01-03
"부산광역시 중구 망양로289-13 (미도빌라)",1,부산광역시 중구 망양로289-13 (미도빌라),부산광역시 중구 보수동1가 41-446,35.10656812,129.0266397,2020,건축물,051-600-4696,부산광역시 중구청,2023-01-03
"부산광역시 중구 망양로288번길6 (맞은편 산복도로밑)",1,부산광역시 중구 망양로288번길6 (맞은편 산복도로밑),부산광역시 중구 보수동1가 41-525,35.10646889,129.0262238,2020,건축물,051-600-4696,부산광역시 중구청,2023-01-03
"부산광역시 중구 망양로288번길5-8",1,부산광역시 중구 망양로288번길5-8,부산광역시 중구 보수동1가 41-533,35.10618059,129.0262962,2020,건축물,051-600-4696,부산광역시 중구청,2023-01-03
"부산광역시 중구 망양로288번길5-2",1,부산광역시 중구 망양로288번길5-2,부산광역시 중구 보수동1가 41-530,35.10624018,129.026196,2020,건축물,051-600-4696,부산광역시 중구청,2023-01-03
"부산광역시 중구 망양로288번길3",1,부산광역시 중구 망양로288번길3,부산광역시 중구 보수동1가 41-539,35.10630798,129.0262772,2020,건축물,051-600-4696,부산광역시 중구청,2023-01-03
"부산광역시 중구 망양로287-5",1,부산광역시 중구 망양로287-5,부산광역시 중구 보수동1가 41-401,35.10652826,129.0265879,2020,건축물,051-600-4696,부산광역시 중구청,2023-01-03
"부산광역시 중구 망양로286번길4 (경선빌라)",1,부산광역시 중구 망양로286번길4 (경선빌라),부산광역시 중구 보수동1가 41-304,35.10651691,129.0260375,2020,건축물,051-600-4696,부산광역시 중구청,2023-01-03
"부산광역시 중구 망양로286번길2-6 (보동길2-6)",1,부산광역시 중구 망양로286번길2-6 (보동길2-6),부산광역시 중구 보수동1가 41-1344,35.10664342,129.0260658,2020,건축물,051-600-4696,부산광역시 중구청,2023-01-03
"부산광역시 중구 망양로286번길2-4 (맞은편 산복도로밑)",1,부산광역시 중구 망양로286번길2-4 (맞은편 산복도로밑),부산광역시 중구 보수동1가 41-1346,35.10664772,129.0261456,2020,건축물,051-600-4696,부산광역시 중구청,2023-01-03
"부산광역시 중구 망양로286번길2 (맞은편 산복도로계단)",1,부산광역시 중구 망양로286번길2 (맞은편 산복도로계단),부산광역시 중구 보수동1가 41-477,35.10654001,129.0261653,2020,건축물,051-600-4696,부산광역시 중구청,2023-01-03
"부산광역시 중구 망양로285-5",1,부산광역시 중구 망양로285-5,부산광역시 중구 보수동1가 41-318,35.10669283,129.0265112,2020,건축물,051-600-4696,부산광역시 중구청,2023-01-03
"부산광역시 중구 망양로285-1",1,부산광역시 중구 망양로285-1,부산광역시 중구 보수동1가 41-911,35.10667356,129.0263703,2020,건축물,051-600-4696,부산광역시 중구청,2023-01-03
"부산광역시 중구 망양로283-3",1,부산광역시 중구 망양로283-3,부산광역시 중구 보수동1가 41-889,35.1068305,129.0263625,2020,건축물,051-600-4696,부산광역시 중구청,2023-01-03
"부산광역시 중구 망양로283-13",1,부산광역시 중구 망양로283-13,부산광역시 중구 보수동1가 41-905,35.1068446,129.0265914,2020,건축물,051-600-4696,부산광역시 중구청,2023-01-03
"부산광역시 중구 망양로281번길3-2",1,부산광역시 중구 망양로281번길3-2,부산광역시 중구 보수동1가 41-1504,35.1070782,129.0265916,2020,건축물,051-600-4696,부산광역시 중구청,2023-01-03
"부산광역시 중구 망양로281번길3",1,부산광역시 중구 망양로281번길3,부산광역시 중구 보수동1가 41-425,35.10706514,129.0264502,2020,건축물,051-600-4696,부산광역시 중구청,2023-01-03
"부산광역시 중구 망양로281-7",1,부산광역시 중구 망양로281-7,부산광역시 중구 보수동1가 41-427,35.10700219,129.0265496,2020,건축물,051-600-4696,부산광역시 중구청,2023-01-03
"부산광역시 중구 망양로279-8",1,부산광역시 중구 망양로279-8,부산광역시 중구 보수동1가 41-422,35.10711315,129.0263812,2020,건축물,051-600-4696,부산광역시 중구청,2023-01-03
"부산광역시 중구 망양로279-12",1,부산광역시 중구 망양로279-12,부산광역시 중구 보수동1가 41-420,35.10712904,129.0265088,2020,건축물,051-600-4696,부산광역시 중구청,2023-01-03
"부산광역시 중구 망양로278번길8-4",1,부산광역시 중구 망양로278번길8-4,부산광역시 중구 보수동1가 41-192,35.1073255,129.0259212,2020,건축물,051-600-4696,부산광역시 중구청,2023-01-03
"부산광역시 중구 망양로278번길8 (해동빌라B동 뒷건물)",1,부산광역시 중구 망양로278번길8 (해동빌라B동 뒷건물),부산광역시 중구 보수동1가 41-194,35.10725902,129.0258497,2020,건축물,051-600-4696,부산광역시 중구청,2023-01-03
"부산광역시 중구 망양로278번길6-12",1,부산광역시 중구 망양로278번길6-12,부산광역시 중구 보수동1가 41-187,35.10744852,129.0259421,2020,건축물,051-600-4696,부산광역시 중구청,2023-01-03
"부산광역시 중구 망양로278번길4-8",1,부산광역시 중구 망양로278번길4-8,부산광역시 중구 보수동1가 41-253,35.1074038,129.0260373,2020,건축물,051-600-4696,부산광역시 중구청,2023-01-03
"부산광역시 중구 망양로278번길4-4 (위 산복도로)",1,부산광역시 중구 망양로278번길4-4 (위 산복도로),부산광역시 중구 보수동1가 41-183,35.10729499,129.0260699,2020,건축물,051-600-4696,부산광역시 중구청,2023-01-03
"부산광역시 중구 망양로319",1,부산광역시 중구 망양로319,부산광역시 중구 대청동4가 75-320,35.10637062,129.0289653,2020,건축물,051-600-4696,부산광역시 중구청,2023-01-03
"부산광역시 중구 망양로316-8",1,부산광역시 중구 망양로316-8,부산광역시 중구 대청동4가 75-30,35.10596994,129.0292129,2020,건축물,051-600-4696,부산광역시 중구청,2023-01-03
"부산광역시 중구 망양로316-4 (맞은편산복도로밑)",1,부산광역시 중구 망양로316-4 (맞은편산복도로밑),부산광역시 중구 대청동4가 75-35,35.10594037,129.0290411,2020,건축물,051-600-4696,부산광역시 중구청,2023-01-03
"부산광역시 중구 망양로316-4 (건물안쪽 산복도로 아래옹벽)",1,부산광역시 중구 망양로316-4 (건물안쪽 산복도로 아래옹벽),부산광역시 중구 대청동4가 75-35,35.10594037,129.0290411,2020,건축물,051-600-4696,부산광역시 중구청,2023-01-03
"부산광역시 중구 망양로277",1,부산광역시 중구 망양로277,부산광역시 중구 보수동1가 41-75,35.1072047,129.0262958,2020,건축물,051-600-4696,부산광역시 중구청,2023-01-03
"부산광역시 중구 망양로275번길7-1 (수도암 맞은편)",1,부산광역시 중구 망양로275번길7-1 (수도암 맞은편),부산광역시 중구 보수동1가 41-818,35.1076749,129.0264905,2020,건축물,051-600-4696,부산광역시 중구청,2023-01-03
"부산광역시 중구 망양로275번길3-8",1,부산광역시 중구 망양로275번길3-8,부산광역시 중구 보수동1가 41-662,35.10768923,129.0263083,2020,건축물,051-600-4696,부산광역시 중구청,2023-01-03
"부산광역시 중구 망양로275번길 3-8",1,부산광역시 중구 망양로275번길 3-8,부산광역시 중구 보수동1가 41-662,35.1076907,129.0263083,2020,건축물,051-600-4696,부산광역시 중구청,2023-01-03
"부산광역시 중구 망양로275번길 3",1,부산광역시 중구 망양로275번길 3,부산광역시 중구 보수동1가 41-664,35.10760012,129.0262485,2020,건축물,051-600-4696,부산광역시 중구청,2023-01-03
"부산광역시 중구 망양로271번길3-6",1,부산광역시 중구 망양로271번길3-6,부산광역시 중구 보수동1가 41-118,35.10798306,129.0263107,2020,건축물,051-600-4696,부산광역시 중구청,2023-01-03
"부산광역시 중구 망양로271번길2-3 (건물뒤)",1,부산광역시 중구 망양로271번길2-3 (건물뒤),부산광역시 중구 보수동1가 41-121,35.10774568,129.026284,2020,건축물,051-600-4696,부산광역시 중구청,2023-01-03
"부산광역시 중구 망양로271번길1-8",1,부산광역시 중구 망양로271번길1-8,부산광역시 중구 보수동1가 41-125,35.10803505,129.0262198,2020,건축물,051-600-4696,부산광역시 중구청,2023-01-03
"부산광역시 중구 망양로271번길10",1,부산광역시 중구 망양로271번길10,부산광역시 중구 보수동1가 41-437,35.10781056,129.0264953,2020,건축물,051-600-4696,부산광역시 중구청,2023-01-03
"부산광역시 중구 망양로271번길1",1,부산광역시 중구 망양로271번길1,부산광역시 중구 보수동1가 41-131,35.10790232,129.0261814,2020,건축물,051-600-4696,부산광역시 중구청,2023-01-03
"부산광역시 중구 망양로270번길8-10 (건물뒤)",1,부산광역시 중구 망양로270번길8-10 (건물뒤),부산광역시 중구 보수동1가 41-245,35.10803885,129.0257769,2020,건축물,051-600-4696,부산광역시 중구청,2023-01-03
"부산광역시 중구 망양로270번길8-10",1,부산광역시 중구 망양로270번길8-10,부산광역시 중구 보수동1가 41-245,35.10803885,129.0257769,2020,건축물,051-600-4696,부산광역시 중구청,2023-01-03
"부산광역시 중구 망양로270번길8 (해인주택)",1,부산광역시 중구 망양로270번길8 (해인주택),부산광역시 중구 보수동1가 41-154,35.1078867,129.0257483,2020,건축물,051-600-4696,부산광역시 중구청,2023-01-03
"부산광역시 중구 망양로270번길6-4 (위 산복도로)",1,부산광역시 중구 망양로270번길6-4 (위 산복도로),부산광역시 중구 보수동1가 41-238,35.10794562,129.0259632,2020,건축물,051-600-4696,부산광역시 중구청,2023-01-03
"부산광역시 중구 망양로270번길6-1",1,부산광역시 중구 망양로270번길6-1,부산광역시 중구 보수동1가 41-248,35.10786876,129.0258165,2020,건축물,051-600-4696,부산광역시 중구청,2023-01-03
"부산광역시 중구 망양로270번길5-1",1,부산광역시 중구 망양로270번길5-1,부산광역시 중구 보수동1가 41-148,35.10780943,129.0259159,2020,건축물,051-600-4696,부산광역시 중구청,2023-01-03
"부산광역시 중구 망양로270번길3-3",1,부산광역시 중구 망양로270번길3-3,부산광역시 중구 보수동1가 41-274,35.10776472,129.0260026,2020,건축물,051-600-4696,부산광역시 중구청,2023-01-03
"부산광역시 중구 망양로270번길3",1,부산광역시 중구 망양로270번길3,부산광역시 중구 보수동1가 41-147,35.10781906,129.0259864,2020,건축물,051-600-4696,부산광역시 중구청,2023-01-03
"부산광역시 중구 망양로268번길5-1",1,부산광역시 중구 망양로268번길5-1,부산광역시 중구 보수동1가 41-242,35.10799422,129.0258591,2020,건축물,051-600-4696,부산광역시 중구청,2023-01-03
"부산광역시 중구 망양로268번길4 (건물 아래)",1,부산광역시 중구 망양로268번길4 (건물 아래),부산광역시 중구 보수동1가 41-445,35.10810856,129.025705,2020,건축물,051-600-4696,부산광역시 중구청,2023-01-03
"부산광역시 중구 망양로268번길3",1,부산광역시 중구 망양로268번길3,부산광역시 중구 보수동1가 41-1198,35.1081673,129.0258297,2020,건축물,051-600-4696,부산광역시 중구청,2023-01-03
"부산광역시 중구 망양로268번길2-4",1,부산광역시 중구 망양로268번길2-4,부산광역시 중구 보수동1가 33-181,35.10836673,129.0255713,2020,건축물,051-600-4696,부산광역시 중구청,2023-01-03
"부산광역시 중구 망양로268번길1-7",1,부산광역시 중구 망양로268번길1-7,부산광역시 중구 보수동1가 41-963,35.10806871,129.0259311,2020,건축물,051-600-4696,부산광역시 중구청,2023-01-03
"부산광역시 중구 망양로268 (등나무슈퍼건물)",1,부산광역시 중구 망양로268 (등나무슈퍼건물),부산광역시 중구 보수동1가 41-250,35.10819181,129.0258991,2020,건축물,051-600-4696,부산광역시 중구청,2023-01-03
"부산광역시 중구 망양로265번길8-7",1,부산광역시 중구 망양로265번길8-7,부산광역시 중구 보수동1가 41-629,35.10831447,129.0264319,2020,건축물,051-600-4696,부산광역시 중구청,2023-01-03
"부산광역시 중구 망양로265번길7-6",1,부산광역시 중구 망양로265번길7-6,부산광역시 중구 보수동1가 41-262,35.10859444,129.026277,2020,건축물,051-600-4696,부산광역시 중구청,2023-01-03
"부산광역시 중구 망양로298번길1",1,부산광역시 중구 망양로298번길1,부산광역시 중구 보수동1가 59-366,35.10578775,129.0271811,2020,건축물,051-600-4696,부산광역시 중구청,2023-01-03
"부산광역시 중구 망양로297-4",1,부산광역시 중구 망양로297-4,부산광역시 중구 보수동1가 59-438,35.10594201,129.0273291,2020,건축물,051-600-4696,부산광역시 중구청,2023-01-03
"부산광역시 중구 망양로297-1",1,부산광역시 중구 망양로297-1,부산광역시 중구 보수동1가 41-506,35.1059698,129.0272828,2020,건축물,051-600-4696,부산광역시 중구청,2023-01-03
"부산광역시 중구 망양로295번길5",1,부산광역시 중구 망양로295번길5,부산광역시 중구 보수동1가 41-490,35.10616653,129.0272174,2020,건축물,051-600-4696,부산광역시 중구청,2023-01-03
"부산광역시 중구 망양로265번길5-10",1,부산광역시 중구 망양로265번길5-10,부산광역시 중구 보수동1가 41-92,35.10864168,129.0260929,2020,건축물,051-600-4696,부산광역시 중구청,2023-01-03
"부산광역시 중구 망양로265번길3-16",1,부산광역시 중구 망양로265번길3-16,부산광역시 중구 보수동1가 41-588,35.10870877,129.0259283,2020,건축물,051-600-4696,부산광역시 중구청,2023-01-03
"부산광역시 중구 망양로265번길3-10",1,부산광역시 중구 망양로265번길3-10,부산광역시 중구 보수동1가 41-96,35.10859692,129.0260331,2020,건축물,051-600-4696,부산광역시 중구청,2023-01-03
"부산광역시 중구 망양로265번길2-9",1,부산광역시 중구 망양로265번길2-9,부산광역시 중구 보수동1가 41-128,35.10821113,129.0261827,2020,건축물,051-600-4696,부산광역시 중구청,2023-01-03
"부산광역시 중구 망양로259번길4-7 (건물뒤)",1,부산광역시 중구 망양로259번길4-7 (건물뒤),부산광역시 중구 보수동1가 41-277,35.10885331,129.0260205,2020,건축물,051-600-4696,부산광역시 중구청,2023-01-03
"부산광역시 중구 망양로252",1,부산광역시 중구 망양로252,부산광역시 중구 보수동1가 2-446,35.1085061,129.0247795,2020,건축물,051-600-4696,부산광역시 중구청,2023-01-03
"부산광역시 중구 망양로244 (옆 산복도로밑)",1,부산광역시 중구 망양로244 (옆 산복도로밑),부산광역시 중구 보수동1가 2-431,35.10878373,129.0241284,2020,건축물,051-600-4696,부산광역시 중구청,2023-01-03
"부산광역시 중구 망양로 421(시민아프트4호동뒤)",1,부산광역시 중구 망양로 421(시민아프트4호동뒤),부산광역시 중구 영주동 68-1,35.11459216,129.0297043,2020,건축물,051-600-4696,부산광역시 중구청,2023-01-03
"부산광역시 중구 망양로 421(시민아프트4,2호동사이뒤)",1,"부산광역시 중구 망양로 421(시민아프트4,2호동사이뒤)",부산광역시 중구 영주동 68-1,35.11459216,129.0297043,2020,건축물,051-600-4696,부산광역시 중구청,2023-01-03
"부산광역시 중구 망양로 421(시민아프트2호동사이뒤)",1,부산광역시 중구 망양로 421(시민아프트2호동사이뒤),부산광역시 중구 영주동 68-1,35.11459137,129.0297031,2020,건축물,051-600-4696,부산광역시 중구청,2023-01-03
"부산광역시 중구 망양로 421(시민아프트1호동뒤)",1,부산광역시 중구 망양로 421(시민아프트1호동뒤),부산광역시 중구 영주동 68-1,35.11459137,129.0297031,2020,건축물,051-600-4696,부산광역시 중구청,2023-01-03
"부산광역시 중구 망양로 385(버스정류장 옆)",1,부산광역시 중구 망양로 385(버스정류장 옆),부산광역시 중구 영주동 325-2,35.11095109,129.0296813,2020,건축물,051-600-4696,부산광역시 중구청,2023-01-03
"부산광역시 중구 망양로 309",1,부산광역시 중구 망양로 309,부산광역시 중구 대청동4가 75-8,35.10578462,129.0282406,2020,건축물,051-600-4696,부산광역시 중구청,2023-01-03
"부산광역시 중구 망양로 289-12",1,부산광역시 중구 망양로 289-12,부산광역시 중구 보수동1가 41-447,35.10644261,129.0267352,2020,건축물,051-600-4696,부산광역시 중구청,2023-01-03
"부산광역시 중구 망양로 281-1",1,부산광역시 중구 망양로 281-1,부산광역시 중구 보수동1가 41-890,35.10697645,129.0263647,2020,건축물,051-600-4696,부산광역시 중구청,2023-01-03
"부산광역시 중구 망양로 269",1,부산광역시 중구 망양로 269,부산광역시 중구 보수동1가 41-129,35.10805424,129.0261501,2020,건축물,051-600-4696,부산광역시 중구청,2023-01-03
"부산광역시 중구 망양로 252-1",1,부산광역시 중구 망양로 252-1,부산광역시 중구 보수동1가 33-169,35.1085739,129.0249606,2020,건축물,051-600-4696,부산광역시 중구청,2023-01-03
"부산광역시 중구 동영로93번안길5 (은광암부근)",1,부산광역시 중구 동영로93번안길5 (은광암부근),부산광역시 중구 영주동 95-3,35.11297109,129.0314461,2020,건축물,051-600-4696,부산광역시 중구청,2023-01-03
"부산광역시 중구 동영로93번안길4 (은광암옆)",1,부산광역시 중구 동영로93번안길4 (은광암옆),부산광역시 중구 영주동 75-4,35.11324902,129.0317228,2020,건축물,051-600-4696,부산광역시 중구청,2023-01-03
"부산광역시 중구 동영로93번길4-1 (세이프존방역)",1,부산광역시 중구 동영로93번길4-1 (세이프존방역),부산광역시 중구 영주동 74-2,35.1133069,129.0320912,2020,건축물,051-600-4696,부산광역시 중구청,2023-01-03
"부산광역시 중구 동영로93번길3",1,부산광역시 중구 동영로93번길3,부산광역시 중구 영주동 75-3,35.1132035,129.0318577,2020,건축물,051-600-4696,부산광역시 중구청,2023-01-03
"부산광역시 중구 동영로86번길8 (문화기사식당뒤)",1,부산광역시 중구 동영로86번길8 (문화기사식당뒤),부산광역시 중구 영주동 140-4,35.11239918,129.0327458,2020,건축물,051-600-4696,부산광역시 중구청,2023-01-03
"부산광역시 중구 동영로86번길10-9 (새화빌라A동)",1,부산광역시 중구 동영로86번길10-9 (새화빌라A동),부산광역시 중구 영주동 467-53,35.11227277,129.0329751,2020,건축물,051-600-4696,부산광역시 중구청,2023-01-03
"부산광역시 중구 동영로83-1 (중구밀면옆골목)",1,부산광역시 중구 동영로83-1 (중구밀면옆골목),부산광역시 중구 영주동 277-8,35.11241154,129.0320091,2020,건축물,051-600-4696,부산광역시 중구청,2023-01-03
"부산광역시 중구 동영로8-2 (이모식당옆)",1,부산광역시 중구 동영로8-2 (이모식당옆),부산광역시 중구 동광동5가 12-10,35.10788183,129.0334568,2020,건축물,051-600-4696,부산광역시 중구청,2023-01-03
"부산광역시 중구 동영로82 (세윤빌라)",1,부산광역시 중구 동영로82 (세윤빌라),부산광역시 중구 영주동 148-56,35.11235785,129.0324157,2020,건축물,051-600-4696,부산광역시 중구청,2023-01-03
"부산광역시 중구 동영로8-1 (태양빌리지)",1,부산광역시 중구 동영로8-1 (태양빌리지),부산광역시 중구 동광동5가 12-9,35.10781315,129.0334846,2020,건축물,051-600-4696,부산광역시 중구청,2023-01-03
"부산광역시 중구 동영로7번길8",1,부산광역시 중구 동영로7번길8,부산광역시 중구 동광동5가 15-60,35.1081109,129.0330881,2020,건축물,051-600-4696,부산광역시 중구청,2023-01-03
"부산광역시 중구 망양로278번길4-4 (맞은편 산복도로밑)",1,부산광역시 중구 망양로278번길4-4 (맞은편 산복도로밑),부산광역시 중구 보수동1가 41-183,35.10729499,129.0260699,2020,건축물,051-600-4696,부산광역시 중구청,2023-01-03
"부산광역시 중구 망양로278번길4-12",1,부산광역시 중구 망양로278번길4-12,부산광역시 중구 보수동1가 41-181,35.10747663,129.0260054,2020,건축물,051-600-4696,부산광역시 중구청,2023-01-03
"부산광역시 중구 망양로278번길4 (은혜교회)",1,부산광역시 중구 망양로278번길4 (은혜교회),부산광역시 중구 보수동1가 41-184,35.10729794,129.0259919,2020,건축물,051-600-4696,부산광역시 중구청,2023-01-03
"부산광역시 중구 망양로277번길6",1,부산광역시 중구 망양로277번길6,부산광역시 중구 보수동1가 41-412,35.10729514,129.0264383,2020,건축물,051-600-4696,부산광역시 중구청,2023-01-03
"부산광역시 중구 동영로7번길10-16",1,부산광역시 중구 동영로74 (낙원시스템에어컨옆),부산광역시 중구 영주동 147-7,35.11155799,129.0322161,2020,건축물,051-600-4696,부산광역시 중구청,2023-01-03
"부산광역시 중구 동영로7번길10-15 (건물뒤)",1,부산광역시 중구 동영로7번길10-15 (건물뒤),부산광역시 중구 동광동5가 15-47,35.10830588,129.0330994,2020,건축물,051-600-4696,부산광역시 중구청,2023-01-03
"부산광역시 중구 동영로7번길10",1,부산광역시 중구 동영로7번길10,부산광역시 중구 동광동5가 15-94,35.10816219,129.0330485,2020,건축물,051-600-4696,부산광역시 중구청,2023-01-03
"부산광역시 중구 동영로78-1 (모리아빌리지2차)",1,부산광역시 중구 동영로78-1 (모리아빌리지2차),부산광역시 중구 영주동 148-14,35.11201371,129.0325169,2020,건축물,051-600-4696,부산광역시 중구청,2023-01-03
"부산광역시 중구 동영로76-1",1,부산광역시 중구 동영로76-1,부산광역시 중구 영주동 148-72,35.11175259,129.0323963,2020,건축물,051-600-4696,부산광역시 중구청,2023-01-03
"부산광역시 중구 동영로74 (낙원시스템에어컨옆)",1,부산광역시 중구 동영로74 (낙원시스템에어컨옆),부산광역시 중구 영주동 147-7,35.11155736,129.0322161,2020,건축물,051-600-4696,부산광역시 중구청,2023-01-03
"부산광역시 중구 동영로73번길57 (신풍슈퍼)",1,부산광역시 중구 동영로73번길57 (신풍슈퍼),부산광역시 중구 영주동 73-9,35.11355397,129.0320243,2020,건축물,051-600-4696,부산광역시 중구청,2023-01-03
"부산광역시 중구 동영로73번길54 (청유미용실옆)",1,부산광역시 중구 동영로73번길54 (청유미용실옆),부산광역시 중구 영주동 75-2,35.11342131,129.0317666,2020,건축물,051-600-4696,부산광역시 중구청,2023-01-03
"부산광역시 중구 동영로73번길51-1(담벼락)",1,부산광역시 중구 동영로73번길51-1(담벼락),부산광역시 중구 영주동 76-7,35.11360779,129.0316089,2020,건축물,051-600-4696,부산광역시 중구청,2023-01-03
"부산광역시 중구 동영로73번길36 (호성빌라)",1,부산광역시 중구 동영로73번길36 (호성빌라),부산광역시 중구 영주동 95-4,35.11294937,129.0313206,2020,건축물,051-600-4696,부산광역시 중구청,2023-01-03
"부산광역시 중구 동영로73번길24 (다인유치원)",1,부산광역시 중구 동영로73번길24 (다인유치원),부산광역시 중구 영주동 277-4,35.11244904,129.0315242,2020,건축물,051-600-4696,부산광역시 중구청,2023-01-03
"부산광역시 중구 동영로73번길15 (시온중앙교회)",1,부산광역시 중구 동영로73번길15 (시온중앙교회),부산광역시 중구 영주동 276-8,35.11207443,129.0316235,2020,건축물,051-600-4696,부산광역시 중구청,2023-01-03
"부산광역시 중구 동영로73번길14(시온중앙교회 맞은편,벽면)",1,"부산광역시 중구 동영로73번길14(시온중앙교회 맞은편,벽면)",부산광역시 중구 영주동 277-22,35.11217549,129.0318993,2020,건축물,051-600-4696,부산광역시 중구청,2023-01-03
"부산광역시 중구 동영로71-1 (영주2동 주민센터 옆 골목안)",1,부산광역시 중구 동영로71-1 (영주2동 주민센터 옆 골목안),부산광역시 중구 영주동 278-16,35.11148235,129.0317448,2020,건축물,051-600-4696,부산광역시 중구청,2023-01-03
"부산광역시 중구 동영로70 (주원센스빌)",1,부산광역시 중구 동영로70 (주원센스빌),부산광역시 중구 영주동 155,35.11126418,129.0320727,2020,건축물,051-600-4696,부산광역시 중구청,2023-01-03
"부산광역시 중구 동영로69",1,부산광역시 중구 동영로69,부산광역시 중구 영주동 278-12,35.11139058,129.0318434,2020,건축물,051-600-4696,부산광역시 중구청,2023-01-03
"부산광역시 중구 동영로64번길4-6 (영주공영주차장뒤)",1,부산광역시 중구 동영로64번길4-6 (영주공영주차장뒤),부산광역시 중구 영주동 466-15,35.11114159,129.0322898,2020,건축물,051-600-4696,부산광역시 중구청,2023-01-03
"부산광역시 중구 동영로64번길18-1",1,부산광역시 중구 동영로64번길18-1,부산광역시 중구 영주동 143-7,35.11202849,129.0327102,2020,건축물,051-600-4696,부산광역시 중구청,2023-01-03
"부산광역시 중구 동영로64번길 4-6  (영주공영주차장앞)",1,부산광역시 중구 동영로64번길4-6 (영주공영주차장뒤),부산광역시 중구 영주동 466-15,35.11114159,129.0322898,2020,건축물,051-600-4696,부산광역시 중구청,2023-01-03
"부산광역시 중구 동영로64번길 11",1,부산광역시 중구 동영로64번길 11,부산광역시 중구 영주동 143-50,35.11163317,129.0324241,2020,건축물,051-600-4696,부산광역시 중구청,2023-01-03
"부산광역시 중구 동영로61번길6-2",1,부산광역시 중구 동영로61번길6-2,부산광역시 중구 영주동 285-7,35.11016695,129.0320755,2020,건축물,051-600-4696,부산광역시 중구청,2023-01-03
"부산광역시 중구 동영로52-6 (경원빌라 맞은편건물)",1,부산광역시 중구 동영로52-6 (경원빌라 맞은편건물),부산광역시 중구 영주동 497-7,35.1112203,129.0328246,2020,건축물,051-600-4696,부산광역시 중구청,2023-01-03
"부산광역시 중구 동영로52 (화성빌라)",1,부산광역시 중구 동영로52 (화성빌라),부산광역시 중구 영주동 530-33,35.11114174,129.0327102,2020,건축물,051-600-4696,부산광역시 중구청,2023-01-03
"부산광역시 중구 동영로44 (성진바이크건물뒤)",1,부산광역시 중구 동영로44 (성진바이크건물뒤),부산광역시 중구 영주동 534-222,35.11062839,129.0334431,2020,건축물,051-600-4696,부산광역시 중구청,2023-01-03
"부산광역시 중구 동영로44 (성진바이크)",1,부산광역시 중구 동영로44 (성진바이크),부산광역시 중구 영주동 534-222,35.11062839,129.0334431,2020,건축물,051-600-4696,부산광역시 중구청,2023-01-03
"부산광역시 중구 동영로38-4",1,부산광역시 중구 동영로38-4,부산광역시 중구 영주동 534-239,35.11026711,129.0337061,2020,건축물,051-600-4696,부산광역시 중구청,2023-01-03
"부산광역시 중구 동영로38-1 (24시 미니슈퍼)",1,부산광역시 중구 동영로38-1 (24시 미니슈퍼),부산광역시 중구 영주동 534-235,35.1101994,129.0335817,2020,건축물,051-600-4696,부산광역시 중구청,2023-01-03
"부산광역시 중구 망양로265번길7-18",1,부산광역시 중구 망양로265번길7-18,부산광역시 중구 보수동1가 41-103,35.10878392,129.0260585,2020,건축물,051-600-4696,부산광역시 중구청,2023-01-03
"부산광역시 중구 망양로265번길7-16 (건물뒤)",1,부산광역시 중구 망양로265번길7-16 (건물뒤),부산광역시 중구 보수동1가 41-612,35.1087537,129.0261411,2020,건축물,051-600-4696,부산광역시 중구청,2023-01-03
"부산광역시 중구 망양로265번길6-11",1,부산광역시 중구 망양로265번길6-11,부산광역시 중구 보수동1가 41-114,35.10818815,129.0263333,2020,건축물,051-600-4696,부산광역시 중구청,2023-01-03
"부산광역시 중구 망양로265번길5-24 (혜광고등학교 정문계단 중간)",1,부산광역시 중구 망양로265번길5-24 (혜광고등학교 정문계단 중간),부산광역시 중구 보수동1가 41-287,35.1088535,129.0258901,2020,건축물,051-600-4696,부산광역시 중구청,2023-01-03
"부산광역시 중구 동영로31번안길6-1",1,부산광역시 중구 동영로31번안길6-1,부산광역시 중구 영주동 535-46,35.10921336,129.0337764,2020,건축물,051-600-4696,부산광역시 중구청,2023-01-03
"부산광역시 중구 동영로31번안길2-1",1,부산광역시 중구 동영로31번안길2-1,부산광역시 중구 영주동 535-42,35.10943947,129.0336954,2020,건축물,051-600-4696,부산광역시 중구청,2023-01-03
"부산광역시 중구 동영로31번안길10-1",1,부산광역시 중구 동영로31번안길10-1,부산광역시 중구 영주동 535-56,35.10879657,129.0339108,2020,건축물,051-600-4696,부산광역시 중구청,2023-01-03
"부산광역시 중구 동영로31번길5",1,부산광역시 중구 동영로31번길5,부산광역시 중구 영주동 535-34,35.1095867,129.0336541,2020,건축물,051-600-4696,부산광역시 중구청,2023-01-03
"부산광역시 중구 동영로31번길11 (흥아거북맨션3동위쪽)",1,부산광역시 중구 동영로31번길11 (흥아거북맨션3동위쪽),부산광역시 중구 영주동 450-25,35.1090424,129.0330089,2020,건축물,051-600-4696,부산광역시 중구청,2023-01-03
"부산광역시 중구 동영로31번길11 (흥아거북맨션2동/후문쪽)",1,부산광역시 중구 동영로31번길11 (흥아거북맨션2동후문쪽),부산광역시 중구 영주동 450-25,35.1090424,129.0330089,2020,건축물,051-600-4696,부산광역시 중구청,2023-01-03
"부산광역시 중구 동영로31번길11 (흥아거북맨션2동)",1,부산광역시 중구 동영로31번길11 (흥아거북맨션2동),부산광역시 중구 영주동 450-25,35.1090424,129.0330089,2020,건축물,051-600-4696,부산광역시 중구청,2023-01-03
"부산광역시 중구 동영로29 (건물뒤)",1,부산광역시 중구 동영로29 (건물뒤),부산광역시 중구 영주동 535-7,35.10939845,129.0339182,2020,건축물,051-600-4696,부산광역시 중구청,2023-01-03
"부산광역시 중구 동영로28-3",1,부산광역시 중구 동영로28-3,부산광역시 중구 영주동 536-82,35.10946205,129.0342081,2020,건축물,051-600-4696,부산광역시 중구청,2023-01-03
"부산광역시 중구 동영로25-1 (건물뒤)",1,부산광역시 중구 동영로25-1 (건물뒤),부산광역시 중구 영주동 536-23,35.10916549,129.0340516,2020,건축물,051-600-4696,부산광역시 중구청,2023-01-03
"부산광역시 중구 동영로22번길72 (두원스위트홈)",1,부산광역시 중구 동영로22번길72 (두원스위트홈),부산광역시 중구 영주동 488-2,35.11149036,129.0332014,2020,건축물,051-600-4696,부산광역시 중구청,2023-01-03
"부산광역시 중구 동영로22번길65-9 (남영빌라 뒷건물)",1,부산광역시 중구 동영로22번길65-9 (남영빌라 뒷건물),부산광역시 중구 영주동 526-100,35.11118542,129.0331148,2020,건축물,051-600-4696,부산광역시 중구청,2023-01-03
"부산광역시 중구 동영로22번길58 (신우빌리지건물뒤)",1,부산광역시 중구 동영로22번길58 (신우빌리지건물뒤),부산광역시 중구 영주동 526-26,35.11101062,129.0336501,2020,건축물,051-600-4696,부산광역시 중구청,2023-01-03
"부산광역시 중구 동영로22번길57-5",1,부산광역시 중구 동영로22번길57-5,부산광역시 중구 영주동 526-64,35.11110725,129.0332601,2020,건축물,051-600-4696,부산광역시 중구청,2023-01-03
"부산광역시 중구 동영로22번길57-13",1,부산광역시 중구 동영로22번길57-13,부산광역시 중구 영주동 497-8,35.11119601,129.0329133,2020,건축물,051-600-4696,부산광역시 중구청,2023-01-03
"부산광역시 중구 동영로22번길43",1,부산광역시 중구 동영로22번길43,부산광역시 중구 영주동 534-238,35.11033086,129.0337735,2020,건축물,051-600-4696,부산광역시 중구청,2023-01-03
"부산광역시 중구 동영로22번길34",1,부산광역시 중구 동영로22번길34,부산광역시 중구 영주동 534-213,35.11006617,129.0341508,2020,건축물,051-600-4696,부산광역시 중구청,2023-01-03
"부산광역시 중구 동영로22번길33",1,부산광역시 중구 동영로22번길33,부산광역시 중구 영주동 534-247,35.11000268,129.0339979,2020,건축물,051-600-4696,부산광역시 중구청,2023-01-03
"부산광역시 중구 동영로22번길3",1,부산광역시 중구 동영로22번길3,부산광역시 중구 영주동 536-110,35.1089741,129.0343947,2020,건축물,051-600-4696,부산광역시 중구청,2023-01-03
"부산광역시 중구 동영로22번길28",1,부산광역시 중구 동영로22번길28,부산광역시 중구 영주동 534-207,35.10980258,129.0343219,2020,건축물,051-600-4696,부산광역시 중구청,2023-01-03
"부산광역시 중구 동영로22번길21",1,부산광역시 중구 동영로22번길21,부산광역시 중구 영주동 534-332,35.10949755,129.0342995,2020,건축물,051-600-4696,부산광역시 중구청,2023-01-03
"부산광역시 중구 동영로22번길17",1,부산광역시 중구 동영로22번길17,부산광역시 중구 영주동 536-124,35.10934284,129.0344377,2020,건축물,051-600-4696,부산광역시 중구청,2023-01-03
"부산광역시 중구 동영로22번길15",1,부산광역시 중구 동영로22번길15,부산광역시 중구 영주동 536-100,35.10920452,129.0345176,2020,건축물,051-600-4696,부산광역시 중구청,2023-01-03
"부산광역시 중구 동영로22번길12",1,부산광역시 중구 동영로22번길12,부산광역시 중구 영주동 534-324,35.10916496,129.0347271,2020,건축물,051-600-4696,부산광역시 중구청,2023-01-03
"부산광역시 중구 동영로21번길1",1,부산광역시 중구 동영로21번길1,부산광역시 중구 영주동 535-31,35.10881745,129.0341702,2020,건축물,051-600-4696,부산광역시 중구청,2023-01-03
"부산광역시 중구 동영로20-1 (동광동청년회방범초소옆/코모도호텔 담길)",1,부산광역시 중구 동영로20-1 (동광동청년회방범초소옆코모도호텔 담길),부산광역시 중구 동광동5가 12-152,35.10864573,129.0343242,2020,건축물,051-600-4696,부산광역시 중구청,2023-01-03
"부산광역시 중구 동영로18-2",1,부산광역시 중구 동영로18-2,부산광역시 중구 동광동5가 12-44,35.10846948,129.0342844,2020,건축물,051-600-4696,부산광역시 중구청,2023-01-03
"부산광역시 중구 동영로18",1,부산광역시 중구 동영로18,부산광역시 중구 동광동5가 12-165,35.10846747,129.0341088,2020,건축물,051-600-4696,부산광역시 중구청,2023-01-03
"부산광역시 중구 동영로17번길9 (흥아거북맨션후문)",1,부산광역시 중구 동영로17번길9 (흥아거북맨션후문),부산광역시 중구 영주동 535-62,35.10864179,129.0337564,2020,건축물,051-600-4696,부산광역시 중구청,2023-01-03
"부산광역시 중구 동영로17번길3-6",1,부산광역시 중구 동영로17번길3-6,부산광역시 중구 동광동5가 13-42,35.10848513,129.0338353,2020,건축물,051-600-4696,부산광역시 중구청,2023-01-03
"부산광역시 중구 동영로7번길6-7 (원산빌라)",1,부산광역시 중구 동영로7번길6-7 (원산빌라),부산광역시 중구 동광동5가 15-68,35.10821485,129.0333527,2020,건축물,051-600-4696,부산광역시 중구청,2023-01-03
"부산광역시 중구 동영로7번길6",1,부산광역시 중구 동영로7번길6,부산광역시 중구 동광동5가 15-72,35.10806307,129.0331557,2020,건축물,051-600-4696,부산광역시 중구청,2023-01-03
"부산광역시 중구 동영로7번길10-9",1,부산광역시 중구 동영로7번길10-9,부산광역시 중구 동광동5가 15-49,35.10828719,129.0330481,2020,건축물,051-600-4696,부산광역시 중구청,2023-01-03
"부산광역시 중구 동영로7번길10-27",1,부산광역시 중구 동영로7번길10-27,부산광역시 중구 동광동5가 15-39,35.10837652,129.0332776,2020,건축물,051-600-4696,부산광역시 중구청,2023-01-03
"부산광역시 중구 흑교로56-17",1,부산광역시 중구 흑교로56-17,부산광역시 중구 보수동1가 76-3,35.10445406,129.025071,2020,건축물,051-600-4696,부산광역시 중구청,2023-01-03
"부산광역시 중구 흑교로87번길3-1 (흑교맨션)",1,부산광역시 중구 흑교로87번길3-1 (흑교맨션),부산광역시 중구 보수동2가 38-1,35.10654703,129.0226702,2020,건축물,051-600-4696,부산광역시 중구청,2023-01-03
"부산광역시 중구 흑교로87번길11-7",1,부산광역시 중구 흑교로87번길11-7,부산광역시 중구 보수동2가 19-5,35.10622603,129.0220868,2020,건축물,051-600-4696,부산광역시 중구청,2023-01-03
"부산광역시 중구 흑교로81번길9 (신광사컴퓨터크리닝)",1,부산광역시 중구 흑교로81번길9 (신광사컴퓨터크리닝),부산광역시 중구 보수동2가 65-1,35.10596722,129.0224752,2020,건축물,051-600-4696,부산광역시 중구청,2023-01-03
"부산광역시 중구 흑교로81번길6-4 (해오름 아파트 옆골목)",1,부산광역시 중구 흑교로81번길6-4 (해오름 아파트 옆골목),부산광역시 중구 보수동2가 34,35.10629204,129.0226675,2020,건축물,051-600-4696,부산광역시 중구청,2023-01-03
"부산광역시 중구 흑교로81번길18 (일신암)",1,부산광역시 중구 흑교로81번길18 (일신암),부산광역시 중구 보수동3가 1-16,35.10567051,129.0216779,2020,건축물,051-600-4696,부산광역시 중구청,2023-01-03
"부산광역시 중구 흑교로81번길12-6",1,부산광역시 중구 흑교로81번길12-6,부산광역시 중구 보수동2가 19-8,35.10614184,129.0221637,2020,건축물,051-600-4696,부산광역시 중구청,2023-01-03
"부산광역시 중구 흑교로81번길12-2 (은하수빌 옆골목)",1,부산광역시 중구 흑교로81번길12-2 (은하수빌 옆골목),부산광역시 중구 보수동2가 19-10,35.1060387,129.0222469,2020,건축물,051-600-4696,부산광역시 중구청,2023-01-03
"부산광역시 중구 흑교로81 (성일정판/한국마트 건물 뒷골목)",1,부산광역시 중구 흑교로81 (성일정판한국마트 건물 뒷골목),부산광역시 중구 보수동2가 48-1,35.10623795,129.0231004,2020,건축물,051-600-4696,부산광역시 중구청,2023-01-03
"부산광역시 중구 흑교로80-13",1,부산광역시 중구 흑교로80-13,부산광역시 중구 보수동1가 26-4,35.10645703,129.0235372,2020,건축물,051-600-4696,부산광역시 중구청,2023-01-03
"부산광역시 중구 흑교로78번안길5 (선희빌라)",1,부산광역시 중구 흑교로78번안길5 (선희빌라),부산광역시 중구 보수동1가 37-5,35.10665035,129.0243081,2020,건축물,051-600-4696,부산광역시 중구청,2023-01-03
"부산광역시 중구 흑교로78번안길43-8",1,부산광역시 중구 흑교로78번안길43-8,부산광역시 중구 보수동1가 33-179,35.10821819,129.0256146,2020,건축물,051-600-4696,부산광역시 중구청,2023-01-03
"부산광역시 중구 흑교로78번안길43-4",1,부산광역시 중구 흑교로78번안길43-4,부산광역시 중구 보수동1가 33-175,35.10816259,129.0254904,2020,건축물,051-600-4696,부산광역시 중구청,2023-01-03
"부산광역시 중구 흑교로78번안길4",1,부산광역시 중구 흑교로78번안길4,부산광역시 중구 보수동1가 40-34,35.1064996,129.0244476,2020,건축물,051-600-4696,부산광역시 중구청,2023-01-03
"부산광역시 중구 흑교로78번안길37 (조양빌리지)",1,부산광역시 중구 흑교로78번안길37 (조양빌리지),부산광역시 중구 보수동1가 33-51,35.10783946,129.0251973,2020,건축물,051-600-4696,부산광역시 중구청,2023-01-03
"부산광역시 중구 흑교로78번안길32 (한신빌라)",1,부산광역시 중구 흑교로78번안길32 (한신빌라),부산광역시 중구 보수동1가 41-71,35.1074493,129.0253501,2020,건축물,051-600-4696,부산광역시 중구청,2023-01-03
"부산광역시 중구 흑교로78번안길23-2 (보수구름다리아래)",1,부산광역시 중구 흑교로78번안길23-2 (보수구름다리아래),부산광역시 중구 보수동1가 33-61,35.1074442,129.0249068,2020,건축물,051-600-4696,부산광역시 중구청,2023-01-03
"부산광역시 중구 흑교로78번안길23-1 (보수구름다리아래)",1,부산광역시 중구 흑교로78번안길23-1 (보수구름다리아래),부산광역시 중구 보수동1가 33-104,35.1073332,129.0247803,2020,건축물,051-600-4696,부산광역시 중구청,2023-01-03
"부산광역시 중구 흑교로78번안길17",1,부산광역시 중구 흑교로78번안길17,부산광역시 중구 보수동1가 33-21,35.10710098,129.0245824,2020,건축물,051-600-4696,부산광역시 중구청,2023-01-03
"부산광역시 중구 흑교로78번안길13-5 (동남궁전빌라)",1,부산광역시 중구 흑교로78번안길13-5 (동남궁전빌라),부산광역시 중구 보수동1가 36-2,35.1069014,129.0243725,2020,건축물,051-600-4696,부산광역시 중구청,2023-01-03
"부산광역시 중구 흑교로78번길5-1 (보수초등학교옆골목)",1,부산광역시 중구 흑교로78번길5-1 (보수초등학교옆골목),부산광역시 중구 보수동1가 27-18,35.10633942,129.0239303,2020,건축물,051-600-4696,부산광역시 중구청,2023-01-03
"부산광역시 중구 흑교로78번길5-1",1,부산광역시 중구 흑교로78번길5-1,부산광역시 중구 보수동1가 27-18,35.10633942,129.0239303,2020,건축물,051-600-4696,부산광역시 중구청,2023-01-03
"부산광역시 중구 흑교로78번길3 (동방주차장)",1,부산광역시 중구 흑교로78번길3 (동방주차장),부산광역시 중구 보수동1가 26-19,35.10622359,129.0237449,2020,건축물,051-600-4696,부산광역시 중구청,2023-01-03
"부산광역시 중구 흑교로77 (보수파출소)",1,부산광역시 중구 흑교로77 (보수파출소),부산광역시 중구 보수동2가 50-6,35.1059794,129.0233856,2020,건축물,051-600-4696,부산광역시 중구청,2023-01-03
"부산광역시 중구 흑교로75번길5-1 (영창지업사 건물뒤)",1,부산광역시 중구 흑교로75번길5-1 (영창지업사 건물뒤),부산광역시 중구 보수동2가 73-19,35.10564527,129.023191,2020,건축물,051-600-4696,부산광역시 중구청,2023-01-03
"부산광역시 중구 흑교로75번길3-1 (제일석유)",1,부산광역시 중구 흑교로75번길3-1 (제일석유),부산광역시 중구 보수동2가 73-13,35.10576566,129.0233212,2020,건축물,051-600-4696,부산광역시 중구청,2023-01-03
"부산광역시 중구 흑교로75번길3 (동화반점 옆골목)",1,부산광역시 중구 흑교로75번길3 (동화반점 옆골목),부산광역시 중구 보수동2가 73-8,35.1057931,129.0234529,2020,건축물,051-600-4696,부산광역시 중구청,2023-01-03
"부산광역시 중구 흑교로75번길19 (현진아크릴건물뒤)",1,부산광역시 중구 흑교로75번길19 (현진아크릴건물뒤),부산광역시 중구 보수동3가 29-6,35.1049232,129.0219666,2020,건축물,051-600-4696,부산광역시 중구청,2023-01-03
"부산광역시 중구 흑교로75번길12 (해마루2차)전주",1,부산광역시 중구 흑교로75번길12 (해마루2차)전주,부산광역시 중구 보수동2가 65-2,35.10558616,129.0224869,2020,건축물,051-600-4696,부산광역시 중구청,2023-01-03
"부산광역시 중구 동영로32-1 (동경종합주택수리건물뒤)",1,부산광역시 중구 동영로32-1 (동경종합주택수리건물뒤),부산광역시 중구 영주동 534-273,35.10965611,129.0340287,2020,건축물,051-600-4696,부산광역시 중구청,2023-01-03
"부산광역시 중구 동영로32",1,부산광역시 중구 동영로32,부산광역시 중구 영주동 536-74,35.1096001,129.0340361,2020,건축물,051-600-4696,부산광역시 중구청,2023-01-03
"부산광역시 중구 흑교로17번길20-19",1,부산광역시 중구 흑교로78번길3 (동방주차장),부산광역시 중구 보수동1가 26-19,35.10622511,129.0237453,2020,건축물,051-600-4696,부산광역시 중구청,2023-01-03
"부산광역시 중구 흑교로52번길6 (보수원로의집)",1,부산광역시 중구 흑교로52번길6 (보수원로의집),부산광역시 중구 보수동1가 86-1,35.10422236,129.0252902,2020,건축물,051-600-4696,부산광역시 중구청,2023-01-03
"부산광역시 중구 흑교로51번길4-2 (부일인쇄사)",1,부산광역시 중구 흑교로51번길4-2 (부일인쇄사),부산광역시 중구 보수동2가 91-12,35.10405245,129.0244588,2020,건축물,051-600-4696,부산광역시 중구청,2023-01-03
"부산광역시 중구 흑교로51번길4 (해동상사)",1,부산광역시 중구 흑교로51번길4 (해동상사),부산광역시 중구 보수동2가 91-2,35.10410827,129.0245698,2020,건축물,051-600-4696,부산광역시 중구청,2023-01-03
"부산광역시 중구 흑교로50 (대양빌딩/김성균한의원)",1,부산광역시 중구 흑교로50 (대양빌딩김성균한의원),부산광역시 중구 보수동1가 83-2,35.10410374,129.0251284,2020,건축물,051-600-4696,부산광역시 중구청,2023-01-03
"부산광역시 중구 흑교로46번길9-1 (남해서적)",1,부산광역시 중구 흑교로46번길9-1 (남해서적),부산광역시 중구 보수동1가 104-10,35.10365876,129.0260137,2020,건축물,051-600-4696,부산광역시 중구청,2023-01-03
"부산광역시 중구 흑교로46번길6 (해피공인중개사)",1,부산광역시 중구 흑교로46번길6 (해피공인중개사),부산광역시 중구 보수동1가 101-1,35.10349447,129.0257083,2020,건축물,051-600-4696,부산광역시 중구청,2023-01-03
"부산광역시 중구 흑교로46번길4-1 (보수빌딩)",1,부산광역시 중구 흑교로46번길4-1 (보수빌딩),부산광역시 중구 보수동1가 101-4,35.10349652,129.0255855,2020,건축물,051-600-4696,부산광역시 중구청,2023-01-03
"부산광역시 중구 흑교로46번길12 (신천지서림)",1,부산광역시 중구 흑교로46번길12 (신천지서림),부산광역시 중구 보수동1가 125-34,35.10347839,129.0262386,2020,건축물,051-600-4696,부산광역시 중구청,2023-01-03
"부산광역시 중구 흑교로46번길11",1,부산광역시 중구 흑교로46번길11,부산광역시 중구 보수동1가 119-6,35.10362715,129.0261809,2020,건축물,051-600-4696,부산광역시 중구청,2023-01-03
"부산광역시 중구 흑교로45번길31 (서진청둥오리 건물뒤)",1,부산광역시 중구 흑교로45번길31 (서진청둥오리 건물뒤),부산광역시 중구 보수동3가 77-2,35.10366199,129.0217042,2020,건축물,051-600-4696,부산광역시 중구청,2023-01-03
"부산광역시 중구 흑교로45번길30-1 (온동네 소문난 김)",1,부산광역시 중구 흑교로45번길30-1 (온동네 소문난 김),부산광역시 중구 보수동3가 52-3,35.1038104,129.0219274,2020,건축물,051-600-4696,부산광역시 중구청,2023-01-03
"부산광역시 중구 흑교로45번길30 (사랑미용실)",1,부산광역시 중구 흑교로45번길30 (사랑미용실),부산광역시 중구 보수동3가 52-2,35.10380202,129.0219699,2020,건축물,051-600-4696,부산광역시 중구청,2023-01-03
"부산광역시 중구 흑교로45번길24 (우촌곰탕)",1,부산광역시 중구 흑교로45번길24 (우촌곰탕),부산광역시 중구 보수동3가 55-1,35.1037794,129.0225849,2020,건축물,051-600-4696,부산광역시 중구청,2023-01-03
"부산광역시 중구 흑교로45번길19-8",1,부산광역시 중구 흑교로45번길19-8,부산광역시 중구 보수동3가 71-9,35.10349036,129.0230083,2020,건축물,051-600-4696,부산광역시 중구청,2023-01-03
"부산광역시 중구 흑교로45번길13 (희망지역아동센터)",1,부산광역시 중구 흑교로45번길13 (희망지역아동센터),부산광역시 중구 보수동3가 70-1,35.10357522,129.0236794,2020,건축물,051-600-4696,부산광역시 중구청,2023-01-03
"부산광역시 중구 흑교로45번길10-1 (미도리우동)",1,부산광역시 중구 흑교로45번길10-1 (미도리우동),부산광역시 중구 보수동2가 105-5,35.10369041,129.0241209,2020,건축물,051-600-4696,부산광역시 중구청,2023-01-03
"부산광역시 중구 흑교로35번길8 (부평정밀열쇠/게이트맨)",1,부산광역시 중구 흑교로35번길8 (부평정밀열쇠게이트맨),부산광역시 중구 부평동3가 77-3,35.10277559,129.0245062,2020,건축물,051-600-4696,부산광역시 중구청,2023-01-03
"부산광역시 중구 흑교로35번길27 (백운집시티타워 맞은편건물)",1,부산광역시 중구 흑교로35번길27 (백운집시티타워 맞은편건물),부산광역시 중구 부평동4가 39-6,35.10266836,129.0222928,2020,건축물,051-600-4696,부산광역시 중구청,2023-01-03
"부산광역시 중구 흑교로35번길22 (합동택배 맞은편)",1,부산광역시 중구 흑교로35번길22 (합동택배 맞은편),부산광역시 중구 부평동4가 4-2,35.10291997,129.0228656,2020,건축물,051-600-4696,부산광역시 중구청,2023-01-03
"부산광역시 중구 흑교로35번길17-3",1,부산광역시 중구 흑교로35번길17-3,부산광역시 중구 부평동4가 5-9,35.10254869,129.0232101,2020,건축물,051-600-4696,부산광역시 중구청,2023-01-03
"부산광역시 중구 흑교로35번길16-1 (예그린아파트)",1,부산광역시 중구 흑교로35번길16-1 (예그린아파트),부산광역시 중구 부평동4가 2-9,35.10283133,129.0234047,2020,건축물,051-600-4696,부산광역시 중구청,2023-01-03
"부산광역시 중구 흑교로35번길10-1 (오렌지노래주점/동서식품)",1,부산광역시 중구 흑교로35번길10-1 (오렌지노래주점동서식품),부산광역시 중구 부평동3가 77-5,35.10274814,129.0242164,2020,건축물,051-600-4696,부산광역시 중구청,2023-01-03
"부산광역시 중구 흑교로35 (부산약국)",1,부산광역시 중구 흑교로35 (부산약국),부산광역시 중구 부평동3가 7-4,35.1027069,129.0250429,2020,건축물,051-600-4696,부산광역시 중구청,2023-01-03
"부산광역시 중구 흑교로34 (부평맨션/부산공구철물)",1,부산광역시 중구 흑교로34 (부평맨션부산공구철물),부산광역시 중구 부평동2가 77,35.10246551,129.0255881,2020,건축물,051-600-4696,부산광역시 중구청,2023-01-03
"부산광역시 중구 흑교로34 (부평맨션/대흥주방설비)",1,부산광역시 중구 흑교로34 (부평맨션대흥주방설비),부산광역시 중구 부평동2가 77,35.10246551,129.0255895,2020,건축물,051-600-4696,부산광역시 중구청,2023-01-03
"부산광역시 중구 흑교로31번길9-2 (도브빌)",1,부산광역시 중구 흑교로31번길9-2 (도브빌),부산광역시 중구 부평동3가 72-13,35.10224891,129.0240984,2020,건축물,051-600-4696,부산광역시 중구청,2023-01-03
"부산광역시 중구 흑교로31번길7 (문창기공 뒤골목)",1,부산광역시 중구 흑교로31번길7 (문창기공 뒤골목),부산광역시 중구 부평동3가 72-3,35.1022421,129.0244744,2020,건축물,051-600-4696,부산광역시 중구청,2023-01-03
"부산광역시 중구 흑교로31번길34 (소문난칼국수 맞은편)",1,부산광역시 중구 흑교로31번길34 (소문난칼국수 맞은편),부산광역시 중구 부평동4가 55-14,35.1025238,129.0216415,2020,건축물,051-600-4696,부산광역시 중구청,2023-01-03
"부산광역시 중구 흑교로31번길26-3",1,부산광역시 중구 흑교로31번길26-3,부산광역시 중구 부평동4가 39-13,35.10256975,129.0223534,2020,건축물,051-600-4696,부산광역시 중구청,2023-01-03
"부산광역시 중구 흑교로74 (보수초등학교후문)",1,부산광역시 중구 흑교로74 (보수초등학교후문),부산광역시 중구 보수동1가 50-1,35.10607215,129.0242812,2020,건축물,051-600-4696,부산광역시 중구청,2023-01-03
"부산광역시 중구 흑교로71번길6-3",1,부산광역시 중구 흑교로71번길6-3,부산광역시 중구 보수동2가 73-29,35.10548093,129.0233186,2020,건축물,051-600-4696,부산광역시 중구청,2023-01-03
"부산광역시 중구 흑교로71번길6-1 (반도미용실)",1,부산광역시 중구 흑교로71번길6-1 (반도미용실),부산광역시 중구 보수동2가 73-30,35.1054941,129.0233935,2020,건축물,051-600-4696,부산광역시 중구청,2023-01-03
"부산광역시 중구 흑교로71번길4-2 (건물뒤 아트빌 옆골목)",1,부산광역시 중구 흑교로71번길4-2 (건물뒤 아트빌 옆골목),부산광역시 중구 보수동2가 73-9,35.10557808,129.0235447,2020,건축물,051-600-4696,부산광역시 중구청,2023-01-03
"부산광역시 중구 흑교로71번길17-2 (신흥빌라트옆)",1,부산광역시 중구 흑교로71번길17-2 (신흥빌라트옆),부산광역시 중구 보수동3가 40-15,35.10464104,129.0224219,2020,건축물,051-600-4696,부산광역시 중구청,2023-01-03
"부산광역시 중구 흑교로71번길16 (백합헤어 건물뒤)",1,부산광역시 중구 흑교로71번길16 (백합헤어 건물뒤),부산광역시 중구 보수동3가 39-13,35.10501732,129.0225007,2020,건축물,051-600-4696,부산광역시 중구청,2023-01-03
"부산광역시 중구 흑교로71번길12-2 (원진상사)",1,부산광역시 중구 흑교로71번길12-2 (원진상사),부산광역시 중구 보수동2가 72-25,35.1051879,129.0228681,2020,건축물,051-600-4696,부산광역시 중구청,2023-01-03
"부산광역시 중구 흑교로71번길10 (거북빌딩/남영전구)",1,부산광역시 중구 흑교로71번길10 (거북빌딩남영전구),부산광역시 중구 보수동2가 72-20,35.1053187,129.0230716,2020,건축물,051-600-4696,부산광역시 중구청,2023-01-03
"부산광역시 중구 흑교로67번길9-3",1,부산광역시 중구 흑교로67번길9-3,부산광역시 중구 보수동2가 83-3,35.1049727,129.0238721,2020,건축물,051-600-4696,부산광역시 중구청,2023-01-03
"부산광역시 중구 흑교로67번길7 (한진인쇄사)",1,부산광역시 중구 흑교로67번길7 (한진인쇄사),부산광역시 중구 보수동2가 85-10,35.1050806,129.0239384,2020,건축물,051-600-4696,부산광역시 중구청,2023-01-03
"부산광역시 중구 흑교로67번길49 (보수종합상가옆)",1,부산광역시 중구 흑교로67번길49 (보수종합상가옆),부산광역시 중구 보수동3가 53-1,35.10395321,129.0219824,2020,건축물,051-600-4696,부산광역시 중구청,2023-01-03
"부산광역시 중구 흑교로67번길38 (신보수아파트 맞은편 건물)",1,부산광역시 중구 흑교로67번길38 (신보수아파트 맞은편 건물),부산광역시 중구 보수동3가 43,35.10441005,129.0224718,2020,건축물,051-600-4696,부산광역시 중구청,2023-01-03
"부산광역시 중구 흑교로67번길37 (신보수아파트/금나라이불)",1,부산광역시 중구 흑교로67번길37 (신보수아파트금나라이불),부산광역시 중구 보수동3가 58,35.1042521,129.0225669,2020,건축물,051-600-4696,부산광역시 중구청,2023-01-03
"부산광역시 중구 흑교로67번길20 (소림빌리지)",1,부산광역시 중구 흑교로67번길20 (소림빌리지),부산광역시 중구 보수동2가 78-5,35.1048419,129.0231764,2020,건축물,051-600-4696,부산광역시 중구청,2023-01-03
"부산광역시 중구 흑교로67번길11-2",1,부산광역시 중구 흑교로67번길11-2,부산광역시 중구 보수동2가 83-12,35.10485356,129.0237592,2020,건축물,051-600-4696,부산광역시 중구청,2023-01-03
"부산광역시 중구 흑교로67번길 43",1,부산광역시 중구 흑교로67번길 43,부산광역시 중구 보수동3가 57-1,35.10411758,129.0222848,2020,건축물,051-600-4696,부산광역시 중구청,2023-01-03
"부산광역시 중구 흑교로67-1 (송파지오스 건물옆)",1,부산광역시 중구 흑교로67-1 (송파지오스 건물옆),부산광역시 중구 보수동2가 75-18,35.1053789,129.0238161,2020,건축물,051-600-4696,부산광역시 중구청,2023-01-03
"부산광역시 중구 흑교로65-5",1,부산광역시 중구 흑교로65-5,부산광역시 중구 보수동2가 85-16,35.1049814,129.0241653,2020,건축물,051-600-4696,부산광역시 중구청,2023-01-03
"부산광역시 중구 흑교로64번길1-5",1,부산광역시 중구 흑교로64번길1-5,부산광역시 중구 보수동1가 46-10,35.10568709,129.0250037,2020,건축물,051-600-4696,부산광역시 중구청,2023-01-03
"부산광역시 중구 흑교로64번길1-10",1,부산광역시 중구 흑교로64번길1-10,부산광역시 중구 보수동1가 46-1,35.10593299,129.0250485,2020,건축물,051-600-4696,부산광역시 중구청,2023-01-03
"부산광역시 중구 흑교로64번길1",1,부산광역시 중구 흑교로64번길1,부산광역시 중구 보수동1가 46-3,35.10560951,129.0251158,2020,건축물,051-600-4696,부산광역시 중구청,2023-01-03
"부산광역시 중구 흑교로64번길 1(옹벽)",1,부산광역시 중구 흑교로64번길 1(옹벽),부산광역시 중구 보수동1가 46-3,35.10560951,129.0251158,2020,건축물,051-600-4696,부산광역시 중구청,2023-01-03
"부산광역시 중구 흑교로63-6 (천상장군도사)",1,부산광역시 중구 흑교로63-6 (천상장군도사),부산광역시 중구 보수동2가 85-28,35.10487278,129.0241194,2020,건축물,051-600-4696,부산광역시 중구청,2023-01-03
"부산광역시 중구 흑교로60번길4-3 (중부산세무서 옆골목)",1,부산광역시 중구 흑교로60번길4-3 (중부산세무서 옆골목),부산광역시 중구 보수동1가 77-2,35.10481666,129.0251049,2020,건축물,051-600-4696,부산광역시 중구청,2023-01-03
"부산광역시 중구 흑교로60번길4-3",1,부산광역시 중구 흑교로60번길4-3,부산광역시 중구 보수동1가 77-2,35.10481666,129.0251049,2020,건축물,051-600-4696,부산광역시 중구청,2023-01-03
"부산광역시 중구 흑교로59번길4-8 (남해카센터 옆골목)",1,부산광역시 중구 흑교로59번길4-8 (남해카센터 옆골목),부산광역시 중구 보수동2가 84-18,35.10475689,129.0241516,2020,건축물,051-600-4696,부산광역시 중구청,2023-01-03
"부산광역시 중구 흑교로59번길4-17",1,부산광역시 중구 흑교로59번길4-17,부산광역시 중구 보수동2가 84-13,35.10484703,129.0239345,2020,건축물,051-600-4696,부산광역시 중구청,2023-01-03
"부산광역시 중구 흑교로59번길3 (물꽁식당)",1,부산광역시 중구 흑교로59번길3 (물꽁식당),부산광역시 중구 보수동2가 89-6,35.10449696,129.0243908,2020,건축물,051-600-4696,부산광역시 중구청,2023-01-03
"부산광역시 중구 흑교로59번길10-1 (JS스크린)",1,부산광역시 중구 흑교로59번길10-1 (JS스크린),부산광역시 중구 보수동2가 80-13,35.1043726,129.0237727,2020,건축물,051-600-4696,부산광역시 중구청,2023-01-03
"부산광역시 중구 흑교로58-11",1,부산광역시 중구 흑교로58-11,부산광역시 중구 보수동1가 77-18,35.10466665,129.0250223,2020,건축물,051-600-4696,부산광역시 중구청,2023-01-03
"부산광역시 중구 흑교로56-19",1,부산광역시 중구 흑교로56-19,부산광역시 중구 보수동1가 73-2,35.10443097,129.0251042,2020,건축물,051-600-4696,부산광역시 중구청,2023-01-03
"부산광역시 중구 초량중로6번길17 (양지힐)",1,부산광역시 중구 초량중로6번길17 (양지힐),부산광역시 중구 영주동 29-2,35.11259387,129.0370365,2020,건축물,051-600-4696,부산광역시 중구청,2023-01-03
"부산광역시 중구 흑교로31번길26-1 (삼보제책사 옆건물)",1,부산광역시 중구 흑교로31번길26-1 (삼보제책사 옆건물),부산광역시 중구 부평동4가 39-18,35.1024841,129.0223934,2020,건축물,051-600-4696,부산광역시 중구청,2023-01-03
"부산광역시 중구 흑교로31번길22 (명성과학)",1,부산광역시 중구 흑교로31번길22 (명성과학),부산광역시 중구 부평동4가 6-4,35.10248053,129.0229637,2020,건축물,051-600-4696,부산광역시 중구청,2023-01-03
"부산광역시 중구 흑교로31번길18-2 (부림냉동공업사)",1,부산광역시 중구 흑교로31번길18-2 (부림냉동공업사),부산광역시 중구 부평동4가 7-5,35.10247195,129.0232617,2020,건축물,051-600-4696,부산광역시 중구청,2023-01-03
"부산광역시 중구 흑교로31번길17 (부광인쇄)",1,부산광역시 중구 흑교로31번길17 (부광인쇄),부산광역시 중구 부평동4가 12-4,35.10229327,129.0233845,2020,건축물,051-600-4696,부산광역시 중구청,2023-01-03
"부산광역시 중구 흑교로31번길15-1 (남흥재생특수칠 건물뒤)",1,부산광역시 중구 흑교로31번길15-1 (남흥재생특수칠 건물뒤),부산광역시 중구 부평동4가 12-8,35.1022682,129.0235216,2020,건축물,051-600-4696,부산광역시 중구청,2023-01-03
"부산광역시 중구 흑교로31 (한양주방기구)",1,부산광역시 중구 흑교로31 (한양주방기구),부산광역시 중구 부평동3가 19-6,35.1023853,129.0249965,2020,건축물,051-600-4696,부산광역시 중구청,2023-01-03
"부산광역시 중구 흑교로25번길6 (해와달나이트)",1,부산광역시 중구 흑교로25번길6 (해와달나이트),부산광역시 중구 부평동3가 25-1,35.10197871,129.0247365,2020,건축물,051-600-4696,부산광역시 중구청,2023-01-03
"부산광역시 중구 흑교로25번길28 (고동포마린)",1,부산광역시 중구 흑교로25번길28 (고동포마린),부산광역시 중구 부평동4가 36-2,35.1020561,129.0222602,2020,건축물,051-600-4696,부산광역시 중구청,2023-01-03
"부산광역시 중구 흑교로25번길27-1",1,부산광역시 중구 흑교로25번길27-1,부산광역시 중구 부평동4가 34-1,35.1019016,129.022185,2020,건축물,051-600-4696,부산광역시 중구청,2023-01-03
"부산광역시 중구 흑교로25번길21 (한일냉동)",1,부산광역시 중구 흑교로25번길21 (한일냉동),부산광역시 중구 부평동4가 16-2,35.10184356,129.0229028,2020,건축물,051-600-4696,부산광역시 중구청,2023-01-03
"부산광역시 중구 흑교로25번길20-1",1,부산광역시 중구 흑교로25번길20-1,부산광역시 중구 부평동4가 15-5,35.1020248,129.0229833,2020,건축물,051-600-4696,부산광역시 중구청,2023-01-03
"부산광역시 중구 흑교로25번길19-12",1,부산광역시 중구 흑교로25번길19-12,부산광역시 중구 부평동4가 17-12,35.10175261,129.0229501,2020,건축물,051-600-4696,부산광역시 중구청,2023-01-03
"부산광역시 중구 흑교로25번길19 (삼이공업사건물뒤)",1,부산광역시 중구 흑교로25번길19 (삼이공업사건물뒤),부산광역시 중구 부평동4가 17-35,35.1018746,129.0230538,2020,건축물,051-600-4696,부산광역시 중구청,2023-01-03
"부산광역시 중구 흑교로25번길18-2 (부평어린이집)",1,부산광역시 중구 흑교로25번길10-3 (만주성옆골목안),부산광역시 중구 부평동3가 71-6,35.10212328,129.0240499,2020,건축물,051-600-4696,부산광역시 중구청,2023-01-03
"부산광역시 중구 흑교로25번길16-8 (삼일광고기획 옆골목안)",1,부산광역시 중구 흑교로25번길16-8 (삼일광고기획 옆골목안),부산광역시 중구 부평동4가 12-14,35.10216099,129.0235348,2020,건축물,051-600-4696,부산광역시 중구청,2023-01-03
"부산광역시 중구 흑교로25번길16-1 (삼일광고기획)",1,부산광역시 중구 흑교로25번길16-1 (삼일광고기획),부산광역시 중구 부평동4가 12-29,35.10199982,129.0234678,2020,건축물,051-600-4696,부산광역시 중구청,2023-01-03
"부산광역시 중구 흑교로25번길15-3 (화진문구사 옆골목안)",1,부산광역시 중구 흑교로25번길15-3 (화진문구사 옆골목안),부산광역시 중구 부평동4가 20-19,35.10174139,129.0234041,2020,건축물,051-600-4696,부산광역시 중구청,2023-01-03
"부산광역시 중구 흑교로25번길10-3 (만주성옆골목안)",1,부산광역시 중구 흑교로25번길10-3 (만주성옆골목안),부산광역시 중구 부평동3가 71-6,35.10212328,129.0240499,2020,건축물,051-600-4696,부산광역시 중구청,2023-01-03
"부산광역시 중구 흑교로25번길10-2 (만주성)",1,부산광역시 중구 흑교로25번길10-2 (만주성),부산광역시 중구 부평동3가 71-9,35.10199806,129.0240798,2020,건축물,051-600-4696,부산광역시 중구청,2023-01-03
"부산광역시 중구 흑교로21번길4 (보련사)",1,부산광역시 중구 흑교로21번길4 (보련사),부산광역시 중구 부평동3가 31-9,35.10154471,129.0248222,2020,건축물,051-600-4696,부산광역시 중구청,2023-01-03
"부산광역시 중구 흑교로21번길22 (명진철물,수도총판)",1,"부산광역시 중구 흑교로21번길22 (명진철물,수도총판)",부산광역시 중구 부평동4가 17-40,35.10160015,129.0228849,2020,건축물,051-600-4696,부산광역시 중구청,2023-01-03
"부산광역시 중구 흑교로21번길20-1 (향수노래방건물뒤)",1,부산광역시 중구 흑교로21번길20-1 (향수노래방건물뒤),부산광역시 중구 부평동4가 17-14,35.10160112,129.0229551,2020,건축물,051-600-4696,부산광역시 중구청,2023-01-03
"부산광역시 중구 흑교로21번길18-12",1,부산광역시 중구 흑교로21번길18-12,부산광역시 중구 부평동4가 17-7,35.10168966,129.0232495,2020,건축물,051-600-4696,부산광역시 중구청,2023-01-03
